,Nome,Empreendedor,CPF_CNPJ,UF,Município,Latitude,Longitude,Posicionamento,Categoria de Risco - CRI,Dano Potencial Associado - DPA,Necessita de PAEBM,Inserido na PNSB,Nível de Emergência,Status da DCE Atual,Status da DCO Atual,Tipo de Barragem de Mineração,A Barragem de Mineração possui outra estrutura de mineração interna selante de reservatório,Quantidade Diques Internos,Quantidade Diques Selantes,Cluster,Altura Máxima do projeto da Back Up Dam (m),Vida útil prevista da Back Up Dam (Anos),Situação operacional da Back Up Dam,Teor (%) do minério principal inserido no rejeito
0,MASSANGANA 01,COOPERATIVA DE PRODUTORES DE ESTANHO DO BRASIL COOPERTIN,26021163000144,RO,ARIQUEMES,-9.946125833333333,-63.33021305555556,Sul do Equador,Média,Baixa,Não,Não,Sem emergência,-,-,Barragem/Barramento/Dique,Não,0.0,0.0,3,0.0,0.0,0,0.05
1,Igarapé Mutum,COOPERMETAL - COOPERATIVA METALURGICA DE RONDONIA,09259736000153,RO,ARIQUEMES,-9.765406944444445,-63.52003083333333,Sul do Equador,Média,Alta,Sim,Sim,Sem emergência,1º Campanha 2024 - Atestado,1º Campanha 2023 - Indefinido,Barragem/Barramento/Dique,Não,0.0,0.0,0,0.0,0.0,0,0.04
2,Rio Santa Cruz,COOPERMETAL - COOPERATIVA METALURGICA DE RONDONIA,09259736000153,RO,ARIQUEMES,-9.76586111111111,-63.568583333333336,Sul do Equador,Alta,Média,Não,Sim,Emergência Nivel 1,1º Campanha 2024 - Atestado,1º Campanha 2023 - Indefinido,Barragem/Barramento/Dique,Não,0.0,0.0,0,0.0,0.0,0,0.05
3,Belíssima,COOPERATIVA DOS GARIMPEIROS DE SANTA CRUZ - COOPERSANTA,34726547000190,RO,ARIQUEMES,-9.792790833333333,-63.55968583333333,Sul do Equador,Alta,Média,Não,Sim,Emergência Nivel 1,1º Campanha 2024 - Atestado,1º Campanha 2023 - Indefinido,Cava com Barramento Construído,Não,0.0,0.0,1,0.0,0.0,0,0.04
4,Jacaré Inferior,COOPERATIVA DOS GARIMPEIROS DE SANTA CRUZ - COOPERSANTA,34726547000190,RO,ARIQUEMES,-9.787805555555556,-63.57516666666667,Sul do Equador,Alta,Alta,Sim,Sim,Emergência Nivel 1,1º Campanha 2024 - Atestado,1º Campanha 2023 - Indefinido,Barragem/Barramento/Dique,Não,0.0,0.0,0,0.0,0.0,0,0.05
5,Jacaré Superior,COOPERATIVA DOS GARIMPEIROS DE SANTA CRUZ - COOPERSANTA,34726547000190,RO,ARIQUEMES,-9.817,-63.55319444444444,Sul do Equador,Alta,Alta,Sim,Sim,Emergência Nivel 1,1º Campanha 2024 - Atestado,1º Campanha 2023 - Indefinido,Barragem/Barramento/Dique,Não,0.0,0.0,0,0.0,0.0,0,0.02
6,Jacaré Medio,COOPERATIVA DOS GARIMPEIROS DE SANTA CRUZ - COOPERSANTA,34726547000190,RO,ARIQUEMES,-9.7955,-63.56527777777777,Sul do Equador,Alta,Alta,Sim,Sim,Emergência Nivel 1,1º Campanha 2024 - Atestado,1º Campanha 2023 - Atestado,Barragem/Barramento/Dique,Não,0.0,0.0,0,0.0,0.0,0,0.02
7,BARRAGEM TARILÂNDIA 01,COOPERATIVA MINERADORA DOS GARIMPEIROS DE ARIQUEMES - COOMIGA,22825491000142,RO,JARU,-10.822,-62.83394444444445,Sul do Equador,Média,Baixa,Não,Não,Sem emergência,-,-,Barragem/Barramento/Dique,Não,0.0,0.0,3,0.0,0.0,0,2.0
8,Barragem Oriente01,METALMIG MINERACAO INDUSTRIA E COMERCIO S/A,34456038000195,RO,MACHADINHO D'OESTE,-9.583333333333334,-62.39611111111111,Sul do Equador,Baixa,Baixa,Não,Não,Sem emergência,-,-,Cava com Barramento Construído,Não,0.0,0.0,1,0.0,0.0,0,10.0
9,RIO BRANCO,Minerais & Metais Comércio e Indústria Ltda Filial: MINERAIS & METAIS COMERCIO E INDUSTRIA LTDA,02587633000769,RO,RIO CRESPO,-9.770694444444445,-62.74063888888889,Sul do Equador,Média,Baixa,Não,Não,Sem emergência,-,-,Barragem/Barramento/Dique,Não,0.0,0.0,3,0.0,0.0,0,10.0
10,Reservatório 01,WHITE SOLDER METALURGIA E MINERACAO LTDA Filial: WHITE SOLDER METALURGIA E MINERACAO LTDA,04107120000224,RO,RIO CRESPO,-9.622277777777779,-63.06086111111111,Sul do Equador,Média,Baixa,Não,Não,Sem emergência,-,-,Barragem/Barramento/Dique,Não,0.0,0.0,3,0.0,0.0,0,0.04
11,BRASE01,"BRASE - BRASIL EXTRACAO, COMERCIO E INDUSTRIA DE ESTANHO EIRELI",23919617000100,RO,RIO CRESPO,-9.586308333333333,-62.86429166666667,Sul do Equador,Média,Baixa,Não,Não,Sem emergência,-,-,Cava com Barramento Construído,Não,0.0,0.0,1,0.0,0.0,0,0.01
12,SOL NASCENTE,COOPERATIVA DE PRODUTORES DE ESTANHO DO BRASIL COOPERTIN,26021163000144,RO,RIO CRESPO,-9.619663888888889,-63.06617222222222,Sul do Equador,Média,Baixa,Não,Não,Sem emergência,-,-,Cava com Barramento Construído,Não,0.0,0.0,1,0.0,0.0,0,1.0
13,RESERVATÓRIO 01,NORTE SUL TERRAPLENAGEM E COMERCIO LTDA,17133940000151,RO,VILHENA,-12.932583333333334,-60.34952777777778,Sul do Equador,Média,Baixa,Não,Não,Sem emergência,-,-,Barragem/Barramento/Dique,Não,0.0,0.0,3,0.0,0.0,0,0.0
14,RESERVATÓRIO 01,FARIAS & RODRIGUES LTDA,11239511000187,RO,VILHENA,-12.95253611111111,-60.408249999999995,Sul do Equador,Média,Baixa,Não,Não,Sem emergência,-,-,Barragem/Barramento/Dique,Não,0.0,0.0,3,0.0,0.0,0,0.0
15,RESERVATÓRIO 01,PORTO COMERCIO DE AREIA LTDA,08491915000159,RO,VILHENA,-12.95975,-60.287638888888885,Sul do Equador,Média,Baixa,Não,Não,Sem emergência,-,-,Barragem/Barramento/Dique,Não,0.0,0.0,3,0.0,0.0,0,0.0
16,RESERVATÓRIO 02,MULLER & CIA LTDA,04800249000132,RO,VILHENA,-12.804852777777779,-60.364444444444445,Sul do Equador,Média,Baixa,Não,Não,Sem emergência,-,-,Barragem/Barramento/Dique,Não,0.0,0.0,3,0.0,0.0,0,0.0
17,RESERVATÓRIO 01,MULLER & CIA LTDA,04800249000132,RO,VILHENA,-12.897444444444444,-60.42258333333333,Sul do Equador,Média,Baixa,Não,Não,Sem emergência,-,-,Barragem/Barramento/Dique,Não,0.0,0.0,3,0.0,0.0,0,0.0
18,BARRAGEM 01,COOPERATIVA MINERADORA DOS GARIMPEIROS DE ARIQUEMES - COOMIGA,22825491000142,RO,CAMPO NOVO DE RONDÔNIA,-10.505,-63.620583333333336,Sul do Equador,Média,Baixa,Não,Não,Sem emergência,-,-,Barragem/Barramento/Dique,Não,0.0,0.0,3,0.0,0.0,0,0.0
19,BARRAGEM 02,COOPERATIVA MINERADORA DOS GARIMPEIROS DE ARIQUEMES - COOMIGA,22825491000142,RO,CAMPO NOVO DE RONDÔNIA,-11.16175,-62.41741666666666,Sul do Equador,Média,Baixa,Não,Não,Sem emergência,-,-,Barragem/Barramento/Dique,Não,0.0,0.0,3,0.0,0.0,0,0.0
20,BARRAGEM TABOQUINHA,COOPERATIVA MINERADORA DOS GARIMPEIROS DE ARIQUEMES - COOMIGA,22825491000142,RO,CUJUBIM,-9.523333333333333,-62.90588888888889,Sul do Equador,Média,Baixa,Não,Não,Sem emergência,-,-,Barragem/Barramento/Dique,Não,0.0,0.0,3,0.0,0.0,0,0.0
21,Queimada ,METALMIG MINERACAO INDUSTRIA E COMERCIO S/A,34456038000195,RO,ITAPUÃ DO OESTE,-9.42386111111111,-63.047888888888885,Sul do Equador,Média,Baixa,Não,Não,Sem emergência,-,-,Barragem/Barramento/Dique,Não,0.0,0.0,3,0.0,0.0,0,0.01
22,CA01,METALMIG MINERACAO INDUSTRIA E COMERCIO S/A,34456038000195,RO,ITAPUÃ DO OESTE,-9.431805555555554,-63.055527777777776,Sul do Equador,Média,Baixa,Não,Não,Sem emergência,-,-,Barragem/Barramento/Dique,Não,0.0,0.0,3,0.0,0.0,0,0.01
23,CA02,METALMIG MINERACAO INDUSTRIA E COMERCIO S/A,34456038000195,RO,ITAPUÃ DO OESTE,-9.43163888888889,-63.055527777777776,Sul do Equador,Média,Baixa,Não,Não,Sem emergência,-,-,Barragem/Barramento/Dique,Não,0.0,0.0,3,0.0,0.0,0,10.0
24,CA03,METALMIG MINERACAO INDUSTRIA E COMERCIO S/A,34456038000195,RO,ITAPUÃ DO OESTE,-9.458055555555555,-63.051944444444445,Sul do Equador,Baixa,Baixa,Não,Não,Sem emergência,-,-,Barragem/Barramento/Dique,Não,0.0,0.0,3,0.0,0.0,0,5.0
25,CA04,METALMIG MINERACAO INDUSTRIA E COMERCIO S/A,34456038000195,RO,ITAPUÃ DO OESTE,-9.437208333333334,-63.05777777777777,Sul do Equador,Baixa,Baixa,Não,Não,Sem emergência,-,-,Barragem/Barramento/Dique,Não,0.0,0.0,3,0.0,0.0,0,0.01
26,QUEIMADA02,METALMIG MINERACAO INDUSTRIA E COMERCIO S/A,34456038000195,RO,ITAPUÃ DO OESTE,-9.464166666666666,-63.074444444444445,Sul do Equador,Baixa,Baixa,Não,Não,Sem emergência,-,-,Barragem/Barramento/Dique,Não,0.0,0.0,3,0.0,0.0,0,0.0
27,QUEIMADA03,METALMIG MINERACAO INDUSTRIA E COMERCIO S/A,34456038000195,RO,ITAPUÃ DO OESTE,-9.461388888888887,-63.07555555555556,Sul do Equador,Baixa,Baixa,Não,Não,Sem emergência,-,-,Cava com Barramento Construído,Não,0.0,0.0,1,0.0,0.0,0,5.0
28,Taboquinha 01 - Crente,ESTANHO DE RONDONIA S/A,00684808000135,RO,ITAPUÃ DO OESTE,-9.198694444444445,-63.075138888888894,Sul do Equador,Média,Média,Não,Sim,Sem emergência,1º Campanha 2024 - Atestado,1º Campanha 2023 - Indefinido,Barragem/Barramento/Dique,Não,0.0,0.0,0,0.0,0.0,0,10.0
29,Taboquinha 02 - Serra Azul,ESTANHO DE RONDONIA S/A,00684808000135,RO,ITAPUÃ DO OESTE,-9.20436111111111,-63.08455555555556,Sul do Equador,Baixa,Média,Não,Sim,Sem emergência,1º Campanha 2024 - Atestado,1º Campanha 2023 - Indefinido,Barragem/Barramento/Dique,Não,0.0,0.0,0,0.0,0.0,0,0.0
30,Taboquinha 03,ESTANHO DE RONDONIA S/A,00684808000135,RO,ITAPUÃ DO OESTE,-9.205542777777778,-63.083620833333335,Sul do Equador,Média,Média,Não,Sim,Sem emergência,1º Campanha 2024 - Atestado,1º Campanha 2023 - Indefinido,Barragem/Barramento/Dique,Não,0.0,0.0,0,0.0,0.0,0,0.01
31,Taboquinha 04,ESTANHO DE RONDONIA S/A,00684808000135,RO,ITAPUÃ DO OESTE,-9.210861111111111,-63.08638888888889,Sul do Equador,Média,Média,Não,Sim,Sem emergência,1º Campanha 2024 - Atestado,1º Campanha 2023 - Indefinido,Barragem/Barramento/Dique,Não,0.0,0.0,0,0.0,0.0,0,5.0
32,BARRAGEM 339,COOPERATIVA MINERADORA DOS GARIMPEIROS DE ARIQUEMES - COOMIGA,22825491000142,RO,MINISTRO ANDREAZZA,-11.158402777777779,-61.611675,Sul do Equador,Média,Baixa,Não,Não,Sem emergência,-,-,Barragem/Barramento/Dique,Não,0.0,0.0,3,0.0,0.0,0,0.0
33,BARRAGEM 341,COOPERATIVA MINERADORA DOS GARIMPEIROS DE ARIQUEMES - COOMIGA,22825491000142,RO,MINISTRO ANDREAZZA,-11.161902777777778,-61.614111111111114,Sul do Equador,Média,Baixa,Não,Não,Sem emergência,-,-,Barragem/Barramento/Dique,Não,0.0,0.0,3,0.0,0.0,0,0.0
34,BARRAGEM URUPA 01,COOPERATIVA MINERADORA DOS GARIMPEIROS DE ARIQUEMES - COOMIGA,22825491000142,RO,URUPÁ,-11.135416666666666,-62.437527777777774,Sul do Equador,Média,Baixa,Não,Não,Sem emergência,-,-,Barragem/Barramento/Dique,Não,0.0,0.0,3,0.0,0.0,0,2.0
35,42,MINERACAO TABOCA S A,34019992000110,AM,PRESIDENTE FIGUEIREDO,-0.7235277777777778,-60.19672222222222,Sul do Equador,Média,Baixa,Não,Não,Sem emergência,-,-,Barragem/Barramento/Dique,Não,0.0,0.0,3,0.0,0.0,0,0.01
36,68-1,MINERACAO TABOCA S A,34019992000110,AM,PRESIDENTE FIGUEIREDO,-0.7404166666666666,-60.20141666666667,Sul do Equador,Média,Baixa,Não,Não,Sem emergência,-,-,Barragem/Barramento/Dique,Não,0.0,0.0,3,0.0,0.0,0,0.11
37,69,MINERACAO TABOCA S A,34019992000110,AM,PRESIDENTE FIGUEIREDO,-0.7431944444444444,-60.20141666666667,Sul do Equador,Média,Baixa,Não,Não,Sem emergência,-,-,Barragem/Barramento/Dique,Não,0.0,0.0,3,0.0,0.0,0,0.01
38,75-1,MINERACAO TABOCA S A,34019992000110,AM,PRESIDENTE FIGUEIREDO,-0.7615555555555555,-60.20597222222222,Sul do Equador,Média,Baixa,Não,Não,Sem emergência,-,-,Barragem/Barramento/Dique,Não,0.0,0.0,3,0.0,0.0,0,0.0
39,30-1,MINERACAO TABOCA S A,34019992000110,AM,PRESIDENTE FIGUEIREDO,-0.707111111111111,-60.19252777777778,Sul do Equador,Média,Baixa,Não,Não,Sem emergência,-,-,Barragem/Barramento/Dique,Não,0.0,0.0,3,0.0,0.0,0,0.01
40,22,MINERACAO TABOCA S A,34019992000110,AM,PRESIDENTE FIGUEIREDO,-0.7386388888888888,-60.16738888888889,Sul do Equador,Média,Baixa,Não,Não,Sem emergência,-,-,Barragem/Barramento/Dique,Não,0.0,0.0,3,0.0,0.0,0,0.01
41,158 (A-1),MINERACAO TABOCA S A,34019992000110,AM,PRESIDENTE FIGUEIREDO,-0.7380277777777777,-60.07891666666667,Sul do Equador,Baixa,Alta,Sim,Sim,Sem emergência,1º Campanha 2024 - Atestado,1º Campanha 2023 - Atestado,Barragem/Barramento/Dique,Sim,0.0,2.0,0,0.0,0.0,0,0.11
42,161 (A-2),MINERACAO TABOCA S A,34019992000110,AM,PRESIDENTE FIGUEIREDO,-0.7322869444444444,-60.06899888888889,Sul do Equador,Baixa,Alta,Sim,Sim,Sem emergência,1º Campanha 2024 - Atestado,1º Campanha 2023 - Atestado,Barragem/Barramento/Dique,Não,0.0,0.0,0,0.0,0.0,0,0.01
43,444 (A-3),MINERACAO TABOCA S A,34019992000110,AM,PRESIDENTE FIGUEIREDO,-0.7384238888888889,-60.075865,Sul do Equador,Baixa,Alta,Sim,Sim,Sem emergência,1º Campanha 2024 - Atestado,1º Campanha 2023 - Atestado,Barragem/Barramento/Dique,Não,0.0,0.0,0,0.0,0.0,0,0.0
44,Pau D'Arco,MINERACAO TABOCA S A,34019992000110,AM,PRESIDENTE FIGUEIREDO,-0.7565758333333333,-60.08802888888889,Sul do Equador,Baixa,Alta,Sim,Sim,Sem emergência,1º Campanha 2024 - Atestado,1º Campanha 2023 - Atestado,Barragem/Barramento/Dique,Não,0.0,0.0,0,0.0,0.0,0,0.01
45,81-1,MINERACAO TABOCA S A,34019992000110,AM,PRESIDENTE FIGUEIREDO,-0.7853611111111111,-60.19341111111111,Sul do Equador,Alta,Média,Não,Sim,Emergência Nivel 1,1º Campanha 2024 - Não Atestado,1º Campanha 2023 - Atestado,Barragem/Barramento/Dique,Não,0.0,0.0,0,0.0,0.0,0,0.0
46,0-1,MINERACAO TABOCA S A,34019992000110,AM,PRESIDENTE FIGUEIREDO,-0.733361111111111,-60.13838888888889,Sul do Equador,Alta,Alta,Sim,Sim,Emergência Nivel 1,1º Campanha 2024 - Não Atestado,1º Campanha 2023 - Atestado,Barragem/Barramento/Dique,Sim,0.0,1.0,0,0.0,0.0,0,0.11
47,189,MINERACAO TABOCA S A,34019992000110,AM,PRESIDENTE FIGUEIREDO,-0.7895555555555556,-60.01302777777778,Sul do Equador,Média,Baixa,Não,Não,Sem emergência,-,-,Barragem/Barramento/Dique,Não,0.0,0.0,3,0.0,0.0,0,0.11
48,103 (Cruz),MINERACAO TABOCA S A,34019992000110,AM,PRESIDENTE FIGUEIREDO,-0.7857222222222222,-60.14191666666667,Sul do Equador,Baixa,Alta,Sim,Sim,Sem emergência,1º Campanha 2024 - Atestado,1º Campanha 2023 - Atestado,Barragem/Barramento/Dique,Não,0.0,0.0,0,0.0,0.0,0,0.01
49,111 (Índio),MINERACAO TABOCA S A,34019992000110,AM,PRESIDENTE FIGUEIREDO,-0.7896666666666666,-60.14427777777778,Sul do Equador,Média,Alta,Sim,Sim,Sem emergência,1º Campanha 2024 - Atestado,1º Campanha 2023 - Atestado,Barragem/Barramento/Dique,Sim,4.0,4.0,0,0.0,0.0,0,0.0
50,LAGOA FACEL 4 ,CADAM S.A.,04788980000190,PA,ALMEIRIM,-0.9145697222222222,-52.42868583333333,Sul do Equador,Baixa,Baixa,Não,Não,Sem emergência,-,-,Barragem/Barramento/Dique,Não,0.0,0.0,3,0.0,0.0,0,15.0
51,LAGOA FACEL 3,CADAM S.A.,04788980000190,PA,ALMEIRIM,-0.9111158333333333,-52.43246277777777,Sul do Equador,Média,Baixa,Não,Não,Sem emergência,-,-,Barragem/Barramento/Dique,Não,0.0,0.0,3,0.0,0.0,0,15.0
52,Barragem do Mirante I e II,CADAM S.A.,04788980000190,PA,ALMEIRIM,-0.8976111111111111,-52.441805555555554,Sul do Equador,Baixa,Alta,Sim,Sim,Sem emergência,1º Campanha 2024 - Atestado,1º Campanha 2023 - Atestado,Barragem/Barramento/Dique,Não,0.0,0.0,0,0.0,0.0,0,15.0
53,Bacia 1 A,IMERYS RIO CAPIM CAULIM S.A.,16532798000152,PA,BARCARENA,-1.5734438888888889,-48.75288277777778,Sul do Equador,Baixa,Alta,Sim,Sim,Sem emergência,1º Campanha 2024 - Atestado,1º Campanha 2023 - Atestado,Barragem/Barramento/Dique,Não,0.0,0.0,0,0.0,0.0,0,98.0
54,Bacia 1 B,IMERYS RIO CAPIM CAULIM S.A.,16532798000152,PA,BARCARENA,-1.5741666666666667,-48.7505,Sul do Equador,Baixa,Alta,Sim,Sim,Sem emergência,1º Campanha 2024 - Atestado,1º Campanha 2023 - Atestado,Barragem/Barramento/Dique,Não,0.0,0.0,0,0.0,0.0,0,8.0
55,Bacia 2,IMERYS RIO CAPIM CAULIM S.A.,16532798000152,PA,BARCARENA,-1.5730555555555557,-48.75555555555555,Sul do Equador,Baixa,Alta,Sim,Sim,Sem emergência,1º Campanha 2024 - Atestado,1º Campanha 2023 - Atestado,Barragem/Barramento/Dique,Não,0.0,0.0,0,0.0,0.0,0,8.0
56,Bacia 3,IMERYS RIO CAPIM CAULIM S.A.,16532798000152,PA,BARCARENA,-1.5706111111111112,-48.75702777777778,Sul do Equador,Baixa,Alta,Sim,Sim,Sem emergência,1º Campanha 2024 - Atestado,1º Campanha 2023 - Atestado,Barragem/Barramento/Dique,Não,0.0,0.0,0,0.0,0.0,0,8.0
57,Bacia 5 A,IMERYS RIO CAPIM CAULIM S.A.,16532798000152,PA,BARCARENA,-1.5809027777777778,-48.74978388888889,Sul do Equador,Baixa,Alta,Sim,Sim,Sem emergência,1º Campanha 2024 - Atestado,1º Campanha 2023 - Atestado,Barragem/Barramento/Dique,Não,0.0,0.0,0,0.0,0.0,0,98.0
58,Bacia 5 B,IMERYS RIO CAPIM CAULIM S.A.,16532798000152,PA,BARCARENA,-1.5813408333333334,-48.751307777777775,Sul do Equador,Baixa,Alta,Sim,Sim,Sem emergência,1º Campanha 2024 - Atestado,1º Campanha 2023 - Atestado,Barragem/Barramento/Dique,Não,0.0,0.0,0,0.0,0.0,0,8.0
59,Bacia 5 C,IMERYS RIO CAPIM CAULIM S.A.,16532798000152,PA,BARCARENA,-1.584,-48.748916666666666,Sul do Equador,Baixa,Alta,Sim,Sim,Sem emergência,1º Campanha 2024 - Atestado,1º Campanha 2023 - Atestado,Barragem/Barramento/Dique,Não,0.0,0.0,0,0.0,0.0,0,8.0
60,Bacia 6 A,IMERYS RIO CAPIM CAULIM S.A.,16532798000152,PA,BARCARENA,-1.5827777777777778,-48.747055555555555,Sul do Equador,Baixa,Alta,Sim,Sim,Sem emergência,1º Campanha 2024 - Atestado,1º Campanha 2023 - Atestado,Barragem/Barramento/Dique,Não,0.0,0.0,0,0.0,0.0,0,98.0
61,Bacia de Segurança,IMERYS RIO CAPIM CAULIM S.A.,16532798000152,PA,BARCARENA,-1.5814269444444444,-48.745565,Sul do Equador,Baixa,Alta,Sim,Sim,Sem emergência,1º Campanha 2024 - Atestado,1º Campanha 2023 - Atestado,Barragem/Barramento/Dique,Não,0.0,0.0,0,0.0,0.0,0,8.0
62,Bacia 6B,IMERYS RIO CAPIM CAULIM S.A.,16532798000152,PA,BARCARENA,-1.5802777777777777,-48.74761111111111,Sul do Equador,Baixa,Alta,Sim,Sim,Sem emergência,1º Campanha 2024 - Atestado,1º Campanha 2023 - Atestado,Barragem/Barramento/Dique,Não,0.0,0.0,0,0.0,0.0,0,8.0
63,1 Mina,VALE S.A.,33592510000154,PA,CANAÃ DOS CARAJÁS,-6.39938888888889,-50.340138888888895,Sul do Equador,Baixa,Baixa,Não,Não,Sem emergência,-,-,Barragem/Barramento/Dique,Não,0.0,0.0,3,0.0,0.0,0,0.0
64,1 Usina,VALE S.A.,33592510000154,PA,CANAÃ DOS CARAJÁS,-6.454916666666667,-50.228750000000005,Sul do Equador,Média,Baixa,Não,Não,Sem emergência,-,-,Barragem/Barramento/Dique,Não,0.0,0.0,3,0.0,0.0,0,0.0
65,3 Mina,VALE S.A.,33592510000154,PA,CANAÃ DOS CARAJÁS,-6.394416666666667,-50.31980555555556,Sul do Equador,Média,Baixa,Não,Não,Sem emergência,-,-,Barragem/Barramento/Dique,Não,0.0,0.0,3,0.0,0.0,0,0.0
66,Sul Pilha,VALE S.A.,33592510000154,PA,CANAÃ DOS CARAJÁS,-6.4782222222222225,-50.321361111111116,Sul do Equador,Média,Baixa,Não,Não,Sem emergência,-,-,Barragem/Barramento/Dique,Não,0.0,0.0,3,0.0,0.0,0,0.0
67,CSO1,SALOBO METAIS S/A,33931478000194,PA,CANAÃ DOS CARAJÁS,-6.408027777777778,-50.04416666666666,Sul do Equador,Baixa,Baixa,Não,Não,Sem emergência,-,-,Barragem/Barramento/Dique,Não,0.0,0.0,3,0.0,0.0,0,0.0
68,BARRAGEM DO SOSSEGO,SALOBO METAIS S/A,33931478000194,PA,CANAÃ DOS CARAJÁS,-6.429108888888889,-50.07015388888889,Sul do Equador,Baixa,Alta,Sim,Sim,Sem emergência,1º Campanha 2024 - Atestado,1º Campanha 2023 - Atestado,Barragem/Barramento/Dique,Sim,0.0,6.0,0,0.0,0.0,0,0.0
69,PN - 1,SALOBO METAIS S/A,33931478000194,PA,CANAÃ DOS CARAJÁS,-6.405722222222223,-50.057111111111105,Sul do Equador,Baixa,Baixa,Não,Não,Sem emergência,-,-,Barragem/Barramento/Dique,Não,0.0,0.0,3,0.0,0.0,0,0.0
70,PN - 3,SALOBO METAIS S/A,33931478000194,PA,CANAÃ DOS CARAJÁS,-6.402594722222222,-50.075408888888894,Sul do Equador,Baixa,Baixa,Não,Não,Sem emergência,-,-,Barragem/Barramento/Dique,Não,0.0,0.0,3,0.0,0.0,0,0.0
71,PN - 4,SALOBO METAIS S/A,33931478000194,PA,CANAÃ DOS CARAJÁS,-6.411516944444445,-50.033252777777776,Sul do Equador,Baixa,Baixa,Não,Não,Sem emergência,-,-,Barragem/Barramento/Dique,Não,0.0,0.0,3,0.0,0.0,0,0.06
72,PN - 6,SALOBO METAIS S/A,33931478000194,PA,CANAÃ DOS CARAJÁS,-6.405993888888889,-50.084200833333334,Sul do Equador,Baixa,Baixa,Não,Não,Sem emergência,-,-,Barragem/Barramento/Dique,Não,0.0,0.0,3,0.0,0.0,0,0.0
73,PN -5,SALOBO METAIS S/A,33931478000194,PA,CANAÃ DOS CARAJÁS,-6.421384722222222,-50.03609083333333,Sul do Equador,Baixa,Baixa,Não,Não,Sem emergência,-,-,Barragem/Barramento/Dique,Não,0.0,0.0,3,0.0,0.0,0,0.0
74,PS -1,SALOBO METAIS S/A,33931478000194,PA,CANAÃ DOS CARAJÁS,-6.433861111111112,-50.048361111111106,Sul do Equador,Baixa,Baixa,Não,Não,Sem emergência,-,-,Barragem/Barramento/Dique,Não,0.0,0.0,3,0.0,0.0,0,0.0
75,Barragem de Rejeitos,Serra Pelada Companhia de Desenvolvimento Mineral,04828209000107,PA,CURIONÓPOLIS,-5.933916666666667,-49.673138888888886,Sul do Equador,Não se aplica,Não se aplica,Não,Não,Sem emergência,-,-,Barragem/Barramento/Dique,Não,0.0,0.0,3,0.0,0.0,0,0.08
76,Dique de Finos I,AVB MINERACAO LTDA.,07605563000152,PA,CURIONÓPOLIS,-6.2479941666666665,-49.74656638888889,Sul do Equador,Baixa,Baixa,Não,Não,Sem emergência,-,-,Barragem/Barramento/Dique,Não,0.0,0.0,3,0.0,0.0,0,0.0
77,Dique de Finos II,AVB MINERACAO LTDA.,07605563000152,PA,CURIONÓPOLIS,-6.244965277777778,-49.74466388888889,Sul do Equador,Baixa,Baixa,Não,Não,Sem emergência,-,-,Barragem/Barramento/Dique,Não,0.0,0.0,3,0.0,0.0,0,0.1
78,Barragem I,CELESTA MINERACAO S.A,17755975000122,PA,CURIONÓPOLIS,-6.086646944444444,-49.65229083333333,Sul do Equador,Média,Baixa,Não,Não,Sem emergência,-,-,Barragem/Barramento/Dique,Não,0.0,0.0,3,0.0,0.0,0,0.0
79,Barragem II,CELESTA MINERACAO S.A,17755975000122,PA,CURIONÓPOLIS,-6.086658333333333,-49.652375,Sul do Equador,Baixa,Baixa,Não,Não,Sem emergência,-,-,Barragem/Barramento/Dique,Não,0.0,0.0,3,0.0,0.0,0,0.1
80,Barragem Antas Norte,AVB MINERACAO LTDA.,07605563000152,PA,CURIONÓPOLIS,-6.236122222222222,-49.76645277777778,Sul do Equador,Baixa,Média,Não,Sim,Sem emergência,1º Campanha 2024 - Atestado,-,Barragem/Barramento/Dique,Não,0.0,0.0,0,0.0,0.0,0,0.0
81,Maney Mineração,Valdinei Mauro de Souza,***568360***,PA,ITAITUBA,-6.788890555555556,-56.608110833333335,Sul do Equador,Média,Baixa,Não,Sim,Sem emergência,-,-,Barragem/Barramento/Dique,Não,0.0,0.0,3,0.0,0.0,0,0.05
82,Barragem B4,M. M. GOLD MINERACAO LTDA,28277368000110,PA,ITAITUBA,-6.363833333333333,-56.26923611111111,Sul do Equador,Média,Baixa,Não,Não,Sem emergência,-,-,Barragem/Barramento/Dique,Não,0.0,0.0,3,0.0,0.0,0,2.0
83,Lagoa São Chico,SERABI MINERACAO S.A.,04207303000130,PA,ITAITUBA,-6.4155500000000005,-55.97078888888889,Sul do Equador,Baixa,Baixa,Não,Não,Sem emergência,-,-,Barragem/Barramento/Dique,Não,0.0,0.0,3,0.0,0.0,0,0.0
84,TSF,BRAZAURO RECURSOS MINERAIS S.A.,05943917000143,PA,ITAITUBA,-6.067933333333333,-56.28649722222222,Sul do Equador,Não se aplica,Não se aplica,Não,Não,Sem emergência,-,-,Barragem/Barramento/Dique,Não,0.0,0.0,3,0.0,0.0,0,0.0
85,CTSF,BRAZAURO RECURSOS MINERAIS S.A.,05943917000143,PA,ITAITUBA,-6.03965,-56.29055555555556,Sul do Equador,Não se aplica,Não se aplica,Não,Não,Sem emergência,-,-,Barragem/Barramento/Dique,Não,0.0,0.0,3,0.0,0.0,0,0.01
86,Bacia 17,SERABI MINERACAO S.A.,04207303000130,PA,ITAITUBA,-6.325094444444444,-55.78635555555555,Sul do Equador,Baixa,Baixa,Não,Sim,Sem emergência,1º Campanha 2024 - Atestado,1º Campanha 2023 - Indefinido,Barragem/Barramento/Dique,Não,0.0,0.0,3,0.0,0.0,0,0.0
87,BACIA DE REJEITOS 16,SERABI MINERACAO S.A.,04207303000130,PA,ITAITUBA,-6.325083333333333,-55.7845,Sul do Equador,Baixa,Baixa,Não,Sim,Sem emergência,1º Campanha 2024 - Atestado,1º Campanha 2023 - Indefinido,Barragem/Barramento/Dique,Não,0.0,0.0,3,0.0,0.0,0,0.0
88,Barragem B2,M. M. GOLD MINERACAO LTDA,28277368000110,PA,ITAITUBA,-6.366119444444444,-56.26777777777777,Sul do Equador,Média,Média,Não,Sim,Sem emergência,1º Campanha 2024 - Atestado,1º Campanha 2023 - Indefinido,Barragem/Barramento/Dique,Não,0.0,0.0,0,0.0,0.0,0,0.0
89,Barragem B1,M. M. GOLD MINERACAO LTDA,28277368000110,PA,ITAITUBA,-6.368191666666666,-56.268391666666666,Sul do Equador,Alta,Baixa,Não,Sim,Emergência Nivel 1,1º Campanha 2024 - Atestado,1º Campanha 2023 - Indefinido,Barragem/Barramento/Dique,Sim,2.0,0.0,3,0.0,0.0,0,0.01
90,Barragem B5,M. M. GOLD MINERACAO LTDA,28277368000110,PA,ITAITUBA,-6.3608361111111105,-56.26710833333333,Sul do Equador,Alta,Média,Não,Sim,Emergência Nivel 1,1º Campanha 2024 - Atestado,1º Campanha 2023 - Indefinido,Barragem/Barramento/Dique,Sim,0.0,3.0,0,0.0,0.0,0,0.01
91,Barragem B3,M. M. GOLD MINERACAO LTDA,28277368000110,PA,ITAITUBA,-6.365602777777777,-56.26658611111111,Sul do Equador,Alta,Média,Não,Sim,Emergência Nivel 1,1º Campanha 2024 - Atestado,1º Campanha 2023 - Indefinido,Barragem/Barramento/Dique,Sim,1.0,1.0,0,0.0,0.0,0,0.0
92,Cajueiro,PARÁ ALTA FLORESTA GOLD MINERAÇÃO LTDA EPP,27567120000121,PA,JACAREACANGA,-9.346195555555557,-56.55292583333333,Sul do Equador,Não se aplica,Não se aplica,Não,Não,Sem emergência,-,-,Barragem/Barramento/Dique,Sim,4.0,4.0,3,0.0,0.0,0,0.0
93,Lagoa de Disposição n°04 - LD4,Alcoa World Alumina Brasil Ltda.,06167730000168,PA,JURUTI,-2.4866944444444443,-56.17813888888889,Sul do Equador,Baixa,Baixa,Não,Não,Sem emergência,-,-,Cava com Barramento Construído,Não,0.0,0.0,1,0.0,0.0,0,9.24
94,LD 8 - Lagoa de disposição 8,Alcoa World Alumina Brasil Ltda.,06167730000168,PA,JURUTI,-2.536477777777778,-56.16697194444444,Sul do Equador,Baixa,Baixa,Não,Não,Sem emergência,-,-,Cava com Barramento Construído,Não,0.0,0.0,1,0.0,0.0,0,15.0
95,LE - Lagoa de Espessamento,Alcoa World Alumina Brasil Ltda.,06167730000168,PA,JURUTI,-2.505,-56.175777777777775,Sul do Equador,Baixa,Média,Não,Sim,Sem emergência,1º Campanha 2024 - Atestado,1º Campanha 2023 - Atestado,Barragem/Barramento/Dique,Não,0.0,0.0,0,0.0,0.0,0,9.24
96,LD1 - Lagoa de Disposição 01,Alcoa World Alumina Brasil Ltda.,06167730000168,PA,JURUTI,-2.5006944444444446,-56.166805555555555,Sul do Equador,Baixa,Média,Não,Sim,Sem emergência,1º Campanha 2024 - Atestado,1º Campanha 2023 - Atestado,Barragem/Barramento/Dique,Não,0.0,0.0,0,0.0,0.0,0,9.24
97,LD2 - Lagoa de Disposição 02,Alcoa World Alumina Brasil Ltda.,06167730000168,PA,JURUTI,-2.496611111111111,-56.17380555555555,Sul do Equador,Baixa,Média,Não,Sim,Sem emergência,1º Campanha 2024 - Atestado,1º Campanha 2023 - Atestado,Barragem/Barramento/Dique,Não,0.0,0.0,0,0.0,0.0,0,9.24
98,LD3 - Lagoa de Disposição 03,Alcoa World Alumina Brasil Ltda.,06167730000168,PA,JURUTI,-2.495888888888889,-56.18801111111111,Sul do Equador,Baixa,Média,Não,Sim,Sem emergência,1º Campanha 2024 - Atestado,1º Campanha 2023 - Atestado,Cava com Barramento Construído,Não,0.0,0.0,1,0.0,0.0,0,9.24
99,Lagoa de Disposição n°05 - LD5,Alcoa World Alumina Brasil Ltda.,06167730000168,PA,JURUTI,-2.48625,-56.196,Sul do Equador,Baixa,Média,Não,Sim,Sem emergência,1º Campanha 2024 - Atestado,1º Campanha 2023 - Atestado,Cava com Barramento Construído,Não,0.0,0.0,1,0.0,0.0,0,9.24
100,LD6 - Lagoa de Disposição 6,Alcoa World Alumina Brasil Ltda.,06167730000168,PA,JURUTI,-2.4869444444444446,-56.17305555555555,Sul do Equador,Baixa,Média,Não,Sim,Sem emergência,1º Campanha 2024 - Atestado,1º Campanha 2023 - Atestado,Cava com Barramento Construído,Não,0.0,1.0,1,0.0,0.0,0,15.0
101,LD7 - Lagoa de Disposição 7,Alcoa World Alumina Brasil Ltda.,06167730000168,PA,JURUTI,-2.484027777777778,-56.20183333333333,Sul do Equador,Baixa,Média,Não,Sim,Sem emergência,1º Campanha 2024 - Atestado,1º Campanha 2023 - Atestado,Cava com Barramento Construído,Não,0.0,0.0,1,0.0,0.0,0,9.24
102,Bacia do Castanheira,BURITIRAMA MINERACAO S.A. FALIDO,27121672000101,PA,MARABÁ,-5.5135861111111115,-50.235533333333336,Sul do Equador,Alta,Alta,Sim,Sim,Emergência Nivel 1,-,-,Barragem/Barramento/Dique,Não,0.0,0.0,0,0.0,0.0,0,0.48
103,BARRAGEM DE FINOS II,SALOBO METAIS S/A,33931478000194,PA,MARABÁ,-5.823972222222222,-50.491416666666666,Sul do Equador,Baixa,Alta,Sim,Sim,Sem emergência,1º Campanha 2024 - Atestado,1º Campanha 2023 - Indefinido,Barragem/Barramento/Dique,Não,0.0,0.0,0,0.0,0.0,0,19.65
104,BARRAGEM DE REJEITOS ,SALOBO METAIS S/A,33931478000194,PA,MARABÁ,-5.778,-50.52291666666667,Sul do Equador,Baixa,Alta,Sim,Sim,Sem emergência,1º Campanha 2024 - Atestado,1º Campanha 2023 - Atestado,Barragem/Barramento/Dique,Não,0.0,0.0,0,0.0,0.0,0,19.65
105,Barragem do Bandeira,BURITIRAMA MINERACAO S.A. FALIDO,27121672000101,PA,MARABÁ,-5.5125,-50.222500000000004,Sul do Equador,Baixa,Alta,Sim,Sim,Nível de Alerta,1º Campanha 2024 - Atestado,1º Campanha 2023 - Não Atestado,Barragem/Barramento/Dique,Não,0.0,0.0,0,0.0,0.0,0,0.0
106,Dique do Grotão,BURITIRAMA MINERACAO S.A. FALIDO,27121672000101,PA,MARABÁ,-5.509079722222222,-50.23345194444445,Sul do Equador,Alta,Média,Não,Sim,Emergência Nivel 1,1º Campanha 2024 - Não Atestado,1º Campanha 2023 - Não Atestado,Barragem/Barramento/Dique,Não,0.0,0.0,0,0.0,0.0,0,0.0
107,DIQUE DE FINOS I,SALOBO METAIS S/A,33931478000194,PA,MARABÁ,-5.81726,-50.567168888888894,Sul do Equador,Baixa,Alta,Sim,Sim,Sem emergência,1º Campanha 2024 - Atestado,1º Campanha 2023 - Indefinido,Barragem/Barramento/Dique,Não,0.0,0.0,0,0.0,0.0,0,0.0
108,DIQUE DE FINOS II,SALOBO METAIS S/A,33931478000194,PA,MARABÁ,-5.8326111111111105,-50.54111111111111,Sul do Equador,Baixa,Alta,Sim,Sim,Sem emergência,1º Campanha 2024 - Atestado,1º Campanha 2023 - Indefinido,Barragem/Barramento/Dique,Não,0.0,0.0,0,0.0,0.0,0,0.0
109,DIQUE DE FINOS III,SALOBO METAIS S/A,33931478000194,PA,MARABÁ,-5.779638888888889,-50.53863888888889,Sul do Equador,Baixa,Média,Não,Sim,Sem emergência,1º Campanha 2024 - Atestado,1º Campanha 2023 - Indefinido,Barragem/Barramento/Dique,Não,0.0,0.0,0,0.0,0.0,0,19.65
110,SP-24A,MINERACAO RIO DO NORTE SA,04932216000146,PA,ORIXIMINÁ,-1.6695788888888887,-56.49726638888889,Sul do Equador,Não se aplica,Não se aplica,Não,Não,Sem emergência,-,-,Barragem/Barramento/Dique,Não,0.0,0.0,3,0.0,0.0,0,100.0
111,SP-24B,MINERACAO RIO DO NORTE SA,04932216000146,PA,ORIXIMINÁ,-1.6689947222222221,-56.502364166666666,Sul do Equador,Não se aplica,Não se aplica,Não,Não,Sem emergência,-,-,Barragem/Barramento/Dique,Não,0.0,0.0,3,0.0,0.0,0,100.0
112,SP-24C,MINERACAO RIO DO NORTE SA,04932216000146,PA,ORIXIMINÁ,-1.6734469444444442,-56.50005222222222,Sul do Equador,Não se aplica,Não se aplica,Não,Não,Sem emergência,-,-,Barragem/Barramento/Dique,Não,0.0,0.0,3,0.0,0.0,0,100.0
113,SP-25A,MINERACAO RIO DO NORTE SA,04932216000146,PA,ORIXIMINÁ,-1.6694027777777776,-56.49225833333333,Sul do Equador,Baixa,Média,Não,Sim,Sem emergência,1º Campanha 2024 - Atestado,1º Campanha 2023 - Indefinido,Barragem/Barramento/Dique,Não,0.0,0.0,0,0.0,0.0,0,100.0
114,SP-25B,MINERACAO RIO DO NORTE SA,04932216000146,PA,ORIXIMINÁ,-1.6719944444444443,-56.48735,Sul do Equador,Baixa,Média,Não,Sim,Sem emergência,1º Campanha 2024 - Atestado,1º Campanha 2023 - Indefinido,Barragem/Barramento/Dique,Não,0.0,0.0,0,0.0,0.0,0,0.0
115,SP-25C,MINERACAO RIO DO NORTE SA,04932216000146,PA,ORIXIMINÁ,-1.673861111111111,-56.49186944444445,Sul do Equador,Baixa,Média,Não,Sim,Sem emergência,1º Campanha 2024 - Atestado,1º Campanha 2023 - Indefinido,Barragem/Barramento/Dique,Não,0.0,0.0,0,0.0,0.0,0,100.0
116,TP2,MINERACAO RIO DO NORTE SA,04932216000146,PA,ORIXIMINÁ,-1.6764999999999999,-56.437999999999995,Sul do Equador,Média,Alta,Sim,Sim,Sem emergência,1º Campanha 2024 - Atestado,1º Campanha 2023 - Atestado,Barragem/Barramento/Dique,Não,0.0,0.0,0,0.0,0.0,0,0.0
117,SP7C,MINERACAO RIO DO NORTE SA,04932216000146,PA,ORIXIMINÁ,-1.6696944444444444,-56.44488888888888,Sul do Equador,Média,Média,Não,Sim,Sem emergência,1º Campanha 2024 - Atestado,1º Campanha 2023 - Atestado,Barragem/Barramento/Dique,Não,0.0,0.0,0,0.0,0.0,0,100.0
118,SP9,MINERACAO RIO DO NORTE SA,04932216000146,PA,ORIXIMINÁ,-1.6749166666666666,-56.46091666666667,Sul do Equador,Baixa,Média,Não,Sim,Sem emergência,1º Campanha 2024 - Atestado,1º Campanha 2023 - Atestado,Barragem/Barramento/Dique,Não,0.0,0.0,0,0.0,0.0,0,100.0
119,SP9A,MINERACAO RIO DO NORTE SA,04932216000146,PA,ORIXIMINÁ,-1.6685277777777776,-56.462250000000004,Sul do Equador,Baixa,Média,Não,Sim,Sem emergência,1º Campanha 2024 - Atestado,1º Campanha 2023 - Atestado,Barragem/Barramento/Dique,Não,0.0,0.0,0,0.0,0.0,0,100.0
120,TP3,MINERACAO RIO DO NORTE SA,04932216000146,PA,ORIXIMINÁ,-1.6877777777777778,-56.472500000000004,Sul do Equador,Baixa,Média,Não,Sim,Sem emergência,1º Campanha 2024 - Atestado,1º Campanha 2023 - Atestado,Barragem/Barramento/Dique,Não,0.0,0.0,0,0.0,0.0,0,100.0
121,TP1,MINERACAO RIO DO NORTE SA,04932216000146,PA,ORIXIMINÁ,-1.6817777777777776,-56.41108333333333,Sul do Equador,Média,Alta,Sim,Sim,Sem emergência,1º Campanha 2024 - Atestado,1º Campanha 2023 - Atestado,Barragem/Barramento/Dique,Não,0.0,0.0,0,0.0,0.0,0,100.0
122,SP4 Norte,MINERACAO RIO DO NORTE SA,04932216000146,PA,ORIXIMINÁ,-1.6848055555555557,-56.427055555555555,Sul do Equador,Média,Média,Não,Sim,Sem emergência,1º Campanha 2024 - Atestado,1º Campanha 2023 - Atestado,Barragem/Barramento/Dique,Sim,0.0,0.0,0,0.0,0.0,0,100.0
123,SP7A,MINERACAO RIO DO NORTE SA,04932216000146,PA,ORIXIMINÁ,-1.6715555555555555,-56.434194444444444,Sul do Equador,Média,Média,Não,Sim,Sem emergência,1º Campanha 2024 - Atestado,1º Campanha 2023 - Atestado,Barragem/Barramento/Dique,Não,0.0,0.0,0,0.0,0.0,0,100.0
124,SP4 Sul,MINERACAO RIO DO NORTE SA,04932216000146,PA,ORIXIMINÁ,-1.690611111111111,-56.42697222222222,Sul do Equador,Baixa,Média,Não,Sim,Sem emergência,1º Campanha 2024 - Atestado,1º Campanha 2023 - Atestado,Barragem/Barramento/Dique,Não,0.0,0.0,0,0.0,0.0,0,100.0
125,SP5 Leste,MINERACAO RIO DO NORTE SA,04932216000146,PA,ORIXIMINÁ,-1.6826944444444443,-56.43541666666666,Sul do Equador,Baixa,Média,Não,Sim,Sem emergência,1º Campanha 2024 - Atestado,1º Campanha 2023 - Atestado,Barragem/Barramento/Dique,Não,0.0,0.0,0,0.0,0.0,0,100.0
126,SP5 Oeste,MINERACAO RIO DO NORTE SA,04932216000146,PA,ORIXIMINÁ,-1.6828333333333332,-56.44455555555555,Sul do Equador,Baixa,Média,Não,Sim,Sem emergência,1º Campanha 2024 - Atestado,1º Campanha 2023 - Atestado,Barragem/Barramento/Dique,Não,0.0,0.0,0,0.0,0.0,0,100.0
127,SP6,MINERACAO RIO DO NORTE SA,04932216000146,PA,ORIXIMINÁ,-1.6763333333333332,-56.424277777777775,Sul do Equador,Baixa,Média,Não,Sim,Sem emergência,1º Campanha 2024 - Atestado,1º Campanha 2023 - Atestado,Barragem/Barramento/Dique,Não,0.0,0.0,0,0.0,0.0,0,100.0
128,SP7B,MINERACAO RIO DO NORTE SA,04932216000146,PA,ORIXIMINÁ,-1.669722222222222,-56.44008333333333,Sul do Equador,Baixa,Média,Não,Sim,Sem emergência,1º Campanha 2024 - Atestado,1º Campanha 2023 - Atestado,Barragem/Barramento/Dique,Não,0.0,0.0,0,0.0,0.0,0,100.0
129,SP8,MINERACAO RIO DO NORTE SA,04932216000146,PA,ORIXIMINÁ,-1.673472222222222,-56.45280555555556,Sul do Equador,Baixa,Média,Não,Sim,Sem emergência,1º Campanha 2024 - Atestado,1º Campanha 2023 - Atestado,Barragem/Barramento/Dique,Não,0.0,0.0,0,0.0,0.0,0,100.0
130,SP13,MINERACAO RIO DO NORTE SA,04932216000146,PA,ORIXIMINÁ,-1.6929444444444444,-56.467305555555555,Sul do Equador,Baixa,Média,Não,Sim,Sem emergência,1º Campanha 2024 - Atestado,1º Campanha 2023 - Atestado,Barragem/Barramento/Dique,Não,0.0,0.0,0,0.0,0.0,0,0.0
131,SP14,MINERACAO RIO DO NORTE SA,04932216000146,PA,ORIXIMINÁ,-1.69875,-56.47027777777778,Sul do Equador,Baixa,Média,Não,Sim,Sem emergência,1º Campanha 2024 - Atestado,1º Campanha 2023 - Atestado,Barragem/Barramento/Dique,Não,0.0,0.0,0,0.0,0.0,0,27.0
132,SP15,MINERACAO RIO DO NORTE SA,04932216000146,PA,ORIXIMINÁ,-1.699888888888889,-56.47541666666667,Sul do Equador,Baixa,Média,Não,Sim,Sem emergência,1º Campanha 2024 - Atestado,1º Campanha 2023 - Atestado,Barragem/Barramento/Dique,Não,0.0,0.0,0,0.0,0.0,0,100.0
133,SP16,MINERACAO RIO DO NORTE SA,04932216000146,PA,ORIXIMINÁ,-1.693888888888889,-56.476111111111116,Sul do Equador,Baixa,Média,Não,Sim,Sem emergência,1º Campanha 2024 - Atestado,1º Campanha 2023 - Atestado,Barragem/Barramento/Dique,Não,0.0,0.0,0,0.0,0.0,0,0.0
134,SP19,MINERACAO RIO DO NORTE SA,04932216000146,PA,ORIXIMINÁ,-1.6808733333333332,-56.46892888888889,Sul do Equador,Baixa,Média,Não,Sim,Sem emergência,1º Campanha 2024 - Atestado,1º Campanha 2023 - Atestado,Barragem/Barramento/Dique,Não,0.0,0.0,0,0.0,0.0,0,100.0
135,SP2_3,MINERACAO RIO DO NORTE SA,04932216000146,PA,ORIXIMINÁ,-1.6846944444444445,-56.40369444444444,Sul do Equador,Baixa,Média,Não,Sim,Sem emergência,1º Campanha 2024 - Atestado,1º Campanha 2023 - Atestado,Barragem/Barramento/Dique,Não,0.0,0.0,0,0.0,0.0,0,100.0
136,Barragem A1,MINERACAO RIO DO NORTE SA,04932216000146,PA,ORIXIMINÁ,-1.4719166666666668,-56.38575,Sul do Equador,Baixa,Média,Não,Sim,Sem emergência,1º Campanha 2024 - Atestado,1º Campanha 2023 - Atestado,Barragem/Barramento/Dique,Não,0.0,0.0,0,0.0,0.0,0,100.0
137,Barragem Água Fria,MINERACAO RIO DO NORTE SA,04932216000146,PA,ORIXIMINÁ,-1.4658055555555556,-56.39066666666667,Sul do Equador,Baixa,Média,Não,Sim,Sem emergência,1º Campanha 2024 - Atestado,1º Campanha 2023 - Atestado,Barragem/Barramento/Dique,Não,0.0,0.0,0,0.0,0.0,0,0.0
138,SP1,MINERACAO RIO DO NORTE SA,04932216000146,PA,ORIXIMINÁ,-1.6829166666666666,-56.418166666666664,Sul do Equador,Baixa,Média,Não,Sim,Sem emergência,1º Campanha 2024 - Atestado,1º Campanha 2023 - Atestado,Barragem/Barramento/Dique,Não,0.0,0.0,0,0.0,0.0,0,100.0
139,SP10,MINERACAO RIO DO NORTE SA,04932216000146,PA,ORIXIMINÁ,-1.6835,-56.45266666666667,Sul do Equador,Baixa,Média,Não,Sim,Sem emergência,1º Campanha 2024 - Atestado,1º Campanha 2023 - Atestado,Barragem/Barramento/Dique,Não,0.0,0.0,0,0.0,0.0,0,100.0
140,SP11,MINERACAO RIO DO NORTE SA,04932216000146,PA,ORIXIMINÁ,-1.6826388888888888,-56.46327777777778,Sul do Equador,Baixa,Média,Não,Sim,Sem emergência,1º Campanha 2024 - Atestado,1º Campanha 2023 - Atestado,Barragem/Barramento/Dique,Não,0.0,0.0,0,0.0,0.0,0,100.0
141,SP12,MINERACAO RIO DO NORTE SA,04932216000146,PA,ORIXIMINÁ,-1.6873055555555556,-56.468250000000005,Sul do Equador,Baixa,Média,Não,Sim,Sem emergência,1º Campanha 2024 - Atestado,1º Campanha 2023 - Atestado,Barragem/Barramento/Dique,Não,0.0,0.0,0,0.0,0.0,0,100.0
142,Usina,MINERACAO ONCA PUMA S.A.,48256824000153,PA,OURILÂNDIA DO NORTE,-6.580472222222222,-51.077083333333334,Sul do Equador,Baixa,Baixa,Não,Não,Sem emergência,-,-,Barragem/Barramento/Dique,Não,0.0,0.0,3,0.0,0.0,0,0.0
143,B1,MINERACAO PARAGOMINAS S.A. Filial: MINERACAO PARAGOMINAS S.A.,12094570000410,PA,PARAGOMINAS,-3.265273888888889,-47.753166666666665,Sul do Equador,Baixa,Alta,Sim,Sim,Sem emergência,1º Campanha 2024 - Atestado,1º Campanha 2023 - Atestado,Barragem/Barramento/Dique,Sim,1.0,0.0,0,0.0,0.0,0,0.0
144,B5,MINERACAO PARAGOMINAS S.A. Filial: MINERACAO PARAGOMINAS S.A.,12094570000410,PA,PARAGOMINAS,-3.275,-47.736333333333334,Sul do Equador,Baixa,Baixa,Não,Sim,Sem emergência,1º Campanha 2024 - Atestado,1º Campanha 2023 - Atestado,Barragem/Barramento/Dique,Não,0.0,0.0,3,0.0,0.0,0,18.14
145,RP1,MINERACAO PARAGOMINAS S.A.,12094570000410,PA,PARAGOMINAS,-3.2648444444444444,-47.72116666666667,Sul do Equador,Baixa,Média,Não,Sim,Sem emergência,1º Campanha 2024 - Atestado,1º Campanha 2023 - Atestado,Barragem/Barramento/Dique,Sim,4.0,0.0,0,0.0,0.0,0,18.14
146,B6,MINERACAO PARAGOMINAS S.A. Filial: MINERACAO PARAGOMINAS S.A.,12094570000410,PA,PARAGOMINAS,-3.2594944444444445,-47.75816666666667,Sul do Equador,Baixa,Alta,Sim,Sim,Sem emergência,1º Campanha 2024 - Atestado,1º Campanha 2023 - Atestado,Barragem/Barramento/Dique,Não,0.0,0.0,0,0.0,0.0,0,0.0
147,PDE02,VALE S.A.,33592510000154,PA,PARAUAPEBAS,-6.107236111111111,-50.31803583333334,Sul do Equador,Não se aplica,Não se aplica,Não,Não,Sem emergência,-,-,Barragem/Barramento/Dique,Não,0.0,0.0,3,0.0,0.0,0,0.0
148,Dique do Puma 01,MINERACAO ONCA PUMA S.A.,48256824000153,PA,PARAUAPEBAS,-6.48525,-51.07752777777778,Sul do Equador,Baixa,Baixa,Não,Não,Sem emergência,-,-,Barragem/Barramento/Dique,Não,0.0,0.0,3,0.0,0.0,0,0.0
149,Dique do Puma 04,MINERACAO ONCA PUMA S.A.,48256824000153,PA,PARAUAPEBAS,-6.479033888888889,-51.06147583333333,Sul do Equador,Baixa,Baixa,Não,Não,Sem emergência,-,-,Barragem/Barramento/Dique,Não,0.0,0.0,3,0.0,0.0,0,0.0
150,Dique do Puma 08,MINERACAO ONCA PUMA S.A.,48256824000153,PA,PARAUAPEBAS,-6.445389722222222,-51.07649388888889,Sul do Equador,Baixa,Baixa,Não,Não,Sem emergência,-,-,Barragem/Barramento/Dique,Não,0.0,0.0,3,0.0,0.0,0,0.0
151,Gelado,VALE S.A.,33592510000154,PA,PARAUAPEBAS,-5.979277777777778,-50.141416666666665,Sul do Equador,Baixa,Alta,Sim,Sim,Sem emergência,1º Campanha 2024 - Atestado,1º Campanha 2023 - Atestado,Barragem/Barramento/Dique,Sim,0.0,1.0,0,0.0,0.0,0,23.5
152,Geladinho,VALE S.A.,33592510000154,PA,PARAUAPEBAS,-5.994793333333333,-50.10948166666667,Sul do Equador,Baixa,Alta,Sim,Sim,Sem emergência,1º Campanha 2024 - Atestado,1º Campanha 2023 - Atestado,Barragem/Barramento/Dique,Não,0.0,0.0,0,0.0,0.0,0,0.0
153,Estéril Sul,VALE S.A.,33592510000154,PA,PARAUAPEBAS,-6.099444444444444,-50.1625,Sul do Equador,Baixa,Média,Não,Sim,Sem emergência,1º Campanha 2024 - Atestado,1º Campanha 2023 - Indefinido,Barragem/Barramento/Dique,Não,0.0,0.0,0,0.0,0.0,0,0.0
154,Jacaré,VALE S.A.,33592510000154,PA,PARAUAPEBAS,-6.108138888888888,-50.16905555555555,Sul do Equador,Baixa,Média,Não,Sim,Sem emergência,1º Campanha 2024 - Atestado,1º Campanha 2023 - Indefinido,Barragem/Barramento/Dique,Não,0.0,0.0,0,0.0,0.0,0,0.0
155,Pera Jusante,VALE S.A.,33592510000154,PA,PARAUAPEBAS,-6.046821111111111,-50.142919166666665,Sul do Equador,Baixa,Alta,Sim,Sim,Sem emergência,1º Campanha 2024 - Atestado,1º Campanha 2023 - Atestado,Barragem/Barramento/Dique,Não,0.0,0.0,0,0.0,0.0,0,0.0
156,Pera Montante,VALE S.A.,33592510000154,PA,PARAUAPEBAS,-6.056853611111111,-50.14378,Sul do Equador,Baixa,Baixa,Não,Sim,Sem emergência,1º Campanha 2024 - Atestado,1º Campanha 2023 - Indefinido,Barragem/Barramento/Dique,Não,0.0,0.0,3,0.0,0.0,0,63.0
157,Azul,VALE S.A.,33592510000154,PA,PARAUAPEBAS,-6.078138888888889,-50.29147222222222,Sul do Equador,Baixa,Alta,Sim,Sim,Sem emergência,1º Campanha 2024 - Atestado,1º Campanha 2023 - Atestado,Barragem/Barramento/Dique,Não,0.0,0.0,0,0.0,0.0,0,0.0
158,RECON,MINERACAO SAO FRANCISCO DE ASSIS LTDA,42323964000110,PA,SÃO FÉLIX DO XINGU,-6.831527777777778,-51.991,Sul do Equador,Média,Baixa,Não,Não,Sem emergência,-,-,Barragem/Barramento/Dique,Não,0.0,0.0,3,0.0,0.0,0,5.0
159,Dique Provisorio 01,MINERACAO ONCA PUMA S.A.,48256824000153,PA,SÃO FÉLIX DO XINGU,-6.561861111111111,-51.17113888888888,Sul do Equador,Baixa,Baixa,Não,Não,Sem emergência,-,-,Barragem/Barramento/Dique,Não,0.0,0.0,3,0.0,0.0,0,0.0
160,Dique Provisorio 02,MINERACAO ONCA PUMA S.A.,48256824000153,PA,SÃO FÉLIX DO XINGU,-6.560388888888888,-51.16672222222222,Sul do Equador,Baixa,Baixa,Não,Não,Sem emergência,-,-,Barragem/Barramento/Dique,Não,0.0,0.0,3,0.0,0.0,0,0.0
161,Dique 04,MINERACAO ONCA PUMA S.A.,48256824000153,PA,SÃO FÉLIX DO XINGU,-6.558737777777778,-51.17782888888889,Sul do Equador,Baixa,Baixa,Não,Não,Sem emergência,-,-,Barragem/Barramento/Dique,Não,0.0,0.0,3,0.0,0.0,0,0.0
162,Dique 05,MINERACAO ONCA PUMA S.A.,48256824000153,PA,SÃO FÉLIX DO XINGU,-6.5559569444444445,-51.17348277777778,Sul do Equador,Baixa,Baixa,Não,Não,Sem emergência,-,-,Barragem/Barramento/Dique,Não,0.0,0.0,3,0.0,0.0,0,0.0
163,BARRAGEM SÃO GERALDO,COOPERATIVA MINERADORA DOS GARIMPEIROS DE ARIQUEMES - COOMIGA,22825491000142,PA,SÃO FÉLIX DO XINGU,-6.110194444444444,-52.275277777777774,Sul do Equador,Média,Baixa,Não,Não,Sem emergência,-,-,Barragem/Barramento/Dique,Não,0.0,0.0,3,0.0,0.0,0,0.0
164,BARRAGEM SAO GERALDO 02,COOPERATIVA MINERADORA DOS GARIMPEIROS DE ARIQUEMES - COOMIGA,22825491000142,PA,SÃO FÉLIX DO XINGU,-6.075777777777778,-52.25519444444444,Sul do Equador,Média,Baixa,Não,Não,Sem emergência,-,-,Barragem/Barramento/Dique,Não,0.0,0.0,3,0.0,0.0,0,0.0
165,Dique 06,MINERACAO ONCA PUMA S.A.,48256824000153,PA,SÃO FÉLIX DO XINGU,-6.58036111111111,-51.174166666666665,Sul do Equador,Baixa,Baixa,Não,Não,Sem emergência,-,-,Barragem/Barramento/Dique,Não,0.0,0.0,3,0.0,0.0,0,0.0
166,Mario Cruz,DEV MINERACAO S.A. - EM RECUPERACAO JUDICIAL,06030747000179,AP,PEDRA BRANCA DO AMAPARI,-0.8008358333333334,-51.87452583333334,Norte do Equador,Média,Média,Não,Sim,Sem emergência,1º Campanha 2024 - Atestado,1º Campanha 2023 - Indefinido,Barragem/Barramento/Dique,Sim,1.0,5.0,0,0.0,0.0,0,18.0
167,TAP D,MINA TUCANO LTDA.,05642709000104,AP,PEDRA BRANCA DO AMAPARI,-0.8531666666666667,-51.888194444444444,Norte do Equador,Baixa,Alta,Sim,Sim,Sem emergência,1º Campanha 2024 - Atestado,1º Campanha 2023 - Atestado,Barragem/Barramento/Dique,Não,0.0,0.0,0,0.0,0.0,0,8.0
168,Leste,MINA TUCANO LTDA.,05642709000104,AP,PEDRA BRANCA DO AMAPARI,-0.875675,-51.887058333333336,Norte do Equador,Baixa,Alta,Sim,Sim,Sem emergência,1º Campanha 2024 - Atestado,1º Campanha 2023 - Atestado,Barragem/Barramento/Dique,Não,0.0,0.0,0,0.0,0.0,0,8.0
169,North Mill Pond,MINA TUCANO LTDA.,05642709000104,AP,PEDRA BRANCA DO AMAPARI,-0.8722777777777777,-51.89593055555555,Norte do Equador,Baixa,Alta,Sim,Sim,Sem emergência,1º Campanha 2024 - Atestado,1º Campanha 2023 - Atestado,Barragem/Barramento/Dique,Não,0.0,0.0,0,0.0,0.0,0,8.0
170,REJEITO USINA,ORO AMAPA MINERACAO,06170253000190,AP,CALÇOENE,-2.285833333333333,-51.63333333333333,Norte do Equador,Média,Baixa,Não,Não,Sem emergência,-,-,Barragem/Barramento/Dique,Não,0.0,0.0,3,0.0,0.0,0,0.4
171,BARRAGEM DA USINA,Empresa de Mineração e Pesquisa do Amapá,14572101000141,AP,CALÇOENE,-2.321194444444444,-51.69058333333333,Norte do Equador,Média,Baixa,Não,Não,Sem emergência,-,-,Barragem/Barramento/Dique,Não,0.0,0.0,3,0.0,0.0,0,0.01
172,Labourrie,Cooperativa de Mineração dos Garimpeiros do Lourenço Ltda,00788904000123,AP,CALÇOENE,-2.278611111111111,-51.65066111111111,Norte do Equador,Média,Baixa,Não,Não,Sem emergência,-,-,Barragem/Barramento/Dique,Não,0.0,0.0,3,0.0,0.0,0,0.02
173,Barragem de Clarificação de Água,Zamapá Mineração S.a.,05857559000156,AP,FERREIRA GOMES,-1.0019722222222223,-51.12888888888889,Norte do Equador,Média,Baixa,Não,Não,Sem emergência,-,-,Barragem/Barramento/Dique,Não,0.0,0.0,3,0.0,0.0,0,15.0
174,Bacuri,Mineração Vila Nova Ltda,02008461000136,AP,MAZAGÃO,-0.37949999999999995,-51.72277777777778,Norte do Equador,Média,Baixa,Não,Não,Sem emergência,-,-,Barragem/Barramento/Dique,Não,0.0,0.0,3,0.0,0.0,0,10.0
175,SAMACA,Mineração Vila Nova Ltda,02008461000136,AP,MAZAGÃO,-0.3516111111111111,-51.83786111111112,Norte do Equador,Média,Baixa,Não,Não,Sem emergência,-,-,Barragem/Barramento/Dique,Não,0.0,0.0,3,0.0,0.0,0,28.0
176,VILA NOVA,UNAMGEN MINERACAO E METALURGIA SA,42593269000179,AP,MAZAGÃO,-0.4016738888888889,-51.75780888888889,Norte do Equador,Baixa,Baixa,Não,Sim,Sem emergência,1º Campanha 2024 - Atestado,1º Campanha 2023 - Indefinido,Barragem/Barramento/Dique,Não,0.0,0.0,3,0.0,0.0,0,44.75
177,Barragem 1,COOPERATIVA DOS GARIMPEIROS DO VALE DO VILA NOVA,23082365000108,AP,PORTO GRANDE,-0.41214194444444446,-51.72891666666667,Norte do Equador,Média,Baixa,Não,Não,Sem emergência,-,-,Barragem/Barramento/Dique,Não,0.0,0.0,3,0.0,0.0,0,1.5
178,Barragem 2,COOPERATIVA DOS GARIMPEIROS DO VALE DO VILA NOVA,23082365000108,AP,PORTO GRANDE,-0.4098638888888889,-51.72924166666667,Norte do Equador,Média,Baixa,Não,Não,Sem emergência,-,-,Barragem/Barramento/Dique,Não,0.0,0.0,3,0.0,0.0,0,1.5
179,Barragem 3,COOPERATIVA DOS GARIMPEIROS DO VALE DO VILA NOVA,23082365000108,AP,PORTO GRANDE,-0.4079111111111111,-51.73000555555556,Norte do Equador,Média,Baixa,Não,Não,Sem emergência,-,-,Barragem/Barramento/Dique,Sim,1.0,0.0,3,0.0,0.0,0,1.5
180,Barragem 4,COOPERATIVA DOS GARIMPEIROS DO VALE DO VILA NOVA,23082365000108,AP,PORTO GRANDE,-0.4070944444444445,-51.73753333333333,Norte do Equador,Média,Baixa,Não,Não,Sem emergência,-,-,Barragem/Barramento/Dique,Não,0.0,0.0,3,0.0,0.0,0,1.5
181,Barragem do Muriacá,CADAM S.A.,04788980000190,AP,VITÓRIA DO JARI,-0.8940277777777778,-52.364583333333336,Sul do Equador,Alta,Média,Não,Sim,Emergência Nivel 1,1º Campanha 2024 - Não Enviado,1º Campanha 2023 - Indefinido,Barragem/Barramento/Dique,Não,0.0,0.0,0,0.0,0.0,0,0.0
182,Barragem do Felipe,CADAM S.A.,04788980000190,AP,VITÓRIA DO JARI,-0.882888888888889,-52.38111111111111,Sul do Equador,Média,Baixa,Não,Não,Sem emergência,-,-,Barragem/Barramento/Dique,Não,0.0,0.0,3,0.0,0.0,0,2.0
183,Barragem da Cava,CADAM S.A.,04788980000190,AP,VITÓRIA DO JARI,-0.8976869444444444,-52.378970833333334,Sul do Equador,Média,Média,Não,Sim,Sem emergência,1º Campanha 2024 - Atestado,1º Campanha 2023 - Atestado,Barragem/Barramento/Dique,Não,0.0,0.0,0,0.0,0.0,0,0.0
184,brejão,"M & J MINERACAO, PISCICULTURA E REFLORESTAMENTO - EIRELI",17181361000184,TO,ALMAS,-11.4464,-47.19303333333333,Sul do Equador,Baixa,Baixa,Não,Não,Sem emergência,-,-,Barragem/Barramento/Dique,Não,0.0,0.0,3,0.0,0.0,0,0.1
185,Barragem de Rejeito Almas,AURA ALMAS MINERACAO S.A.,08213823000107,TO,ALMAS,-11.718616944444445,-47.18900194444444,Sul do Equador,Baixa,Baixa,Não,Sim,Sem emergência,1º Campanha 2024 - Atestado,-,Barragem/Barramento/Dique,Não,0.0,0.0,3,0.0,0.0,0,0.01
186,BARRAGEM DE CONTENÇÃO DE REJEITOS,ITAFOS ARRAIAS MINERACAO E FERTILIZANTES S.A.,05919578000160,TO,ARRAIAS,-12.895818888888888,-46.81811777777778,Sul do Equador,Baixa,Alta,Sim,Sim,Sem emergência,1º Campanha 2024 - Atestado,1º Campanha 2023 - Atestado,Barragem/Barramento/Dique,Não,0.0,0.0,0,0.0,0.0,0,2.5
187,BARRAGEM,MONTE SINAI MINERACAO LTDA,00060095000139,TO,MONTE DO CARMO,-10.760492777777777,-48.08072555555556,Sul do Equador,Média,Baixa,Não,Não,Sem emergência,-,-,Barragem/Barramento/Dique,Não,0.0,0.0,3,0.0,0.0,0,0.0
188,BARRAGEM GEOMINAS,Geominas Minerações Ltda.,11979744000116,TO,NATIVIDADE,-11.647416666666667,-47.67673333333333,Sul do Equador,Baixa,Baixa,Não,Não,Sem emergência,-,-,Barragem/Barramento/Dique,Não,0.0,0.0,3,0.0,0.0,0,90.0
189,BARRAGEM GEOMINAS-001,Geominas Minerações Ltda.,11979744000116,TO,NATIVIDADE,-11.649327777777778,-47.676177777777774,Sul do Equador,Baixa,Baixa,Não,Não,Sem emergência,-,-,Barragem/Barramento/Dique,Não,0.0,0.0,3,0.0,0.0,0,0.0
190,BARRAGEM GEOMINAS-002,Geominas Minerações Ltda.,11979744000116,TO,NATIVIDADE,-11.650002777777779,-47.67500277777778,Sul do Equador,Baixa,Baixa,Não,Não,Sem emergência,-,-,Barragem/Barramento/Dique,Não,0.0,0.0,3,0.0,0.0,0,0.0
191,SANTA LUZIA,Mineração Santa Luzia Limitada,19791590000146,TO,NATIVIDADE,-11.588944444444445,-47.88317222222222,Sul do Equador,Média,Baixa,Não,Não,Sem emergência,-,-,Barragem/Barramento/Dique,Sim,1.0,0.0,3,0.0,0.0,0,0.0
192,Area M,CBE COMPANHIA BRASILEIRA DE EQUIPAMENTO Filial: CBE COMPANHIA BRASILEIRA DE EQUIPAMENTO,27184936000761,MA,CODÓ,-4.523583333333333,-44.01602777777778,Sul do Equador,Média,Baixa,Não,Não,Sem emergência,-,-,Barragem/Barramento/Dique,Não,0.0,0.0,3,0.0,0.0,0,0.01
193,Barragem do Vené II,MINERACAO AURIZONA S/A,42422048000138,MA,GODOFREDO VIANA,-1.3095933333333334,-45.767765555555556,Sul do Equador,Baixa,Alta,Sim,Sim,Sem emergência,1º Campanha 2024 - Atestado,-,Barragem/Barramento/Dique,Não,0.0,0.0,0,0.0,0.0,0,0.01
194,bonito,ECB ROCHAS ORNAMENTAIS DO BRASIL LTDA,02746671000121,PI,CASTELO DO PIAUÍ,-5.208916666666667,-41.70766666666667,Sul do Equador,Média,Baixa,Não,Não,Sem emergência,-,-,Barragem/Barramento/Dique,Não,0.0,0.0,3,0.0,0.0,0,0.0
195,803.285/2014,PLINIO ALMEIDA BOSON & CIA LTDA,11714784000136,PI,SÃO LOURENÇO DO PIAUÍ,-9.236055555555554,-42.57811111111111,Sul do Equador,Média,Baixa,Não,Não,Sem emergência,-,-,Barragem/Barramento/Dique,Não,0.0,0.0,3,0.0,0.0,0,0.0
196,QUIXABA USINA,"ROZEN MINERADORA, CONSULTORIA E ASSESSORIA EM GESTAO EMPRESARIAL LTDA",10857721000176,PB,VÁRZEA,-6.807472222222222,-37.008,Sul do Equador,Média,Baixa,Não,Não,Sem emergência,-,-,Barragem/Barramento/Dique,Não,0.0,0.0,3,0.0,0.0,0,2.0
197,BARRAGEM SERROTE,MINERACAO VALE VERDE DO BRASIL LTDA.,08650571000183,AL,CRAÍBAS,-9.67225,-36.77325,Sul do Equador,Baixa,Alta,Sim,Sim,Sem emergência,1º Campanha 2024 - Atestado,1º Campanha 2023 - Atestado,Barragem/Barramento/Dique,Não,0.0,0.0,0,0.0,0.0,0,34.0
198,Dique Petrobrás,MOSAIC FERTILIZANTES P&K LTDA.,33931486001455,SE,ROSÁRIO DO CATETE,-10.653444444444444,-37.03058333333333,Sul do Equador,Baixa,Baixa,Não,Não,Sem emergência,-,-,Barragem/Barramento/Dique,Não,0.0,0.0,3,0.0,0.0,0,2.4
199,Dique de Contenção de Salmoura,MOSAIC FERTILIZANTES P&K LTDA.,33931486001455,SE,ROSÁRIO DO CATETE,-10.657833333333334,-37.02983333333333,Sul do Equador,Baixa,Média,Não,Sim,Sem emergência,1º Campanha 2024 - Atestado,1º Campanha 2023 - Indefinido,Barragem/Barramento/Dique,Não,0.0,0.0,0,0.0,0.0,0,2.4
200,Dique de Resíduos Insóluveis ,MOSAIC FERTILIZANTES P&K LTDA.,33931486001455,SE,ROSÁRIO DO CATETE,-10.657333333333334,-37.03133333333333,Sul do Equador,Baixa,Média,Não,Sim,Sem emergência,1º Campanha 2024 - Atestado,1º Campanha 2023 - Indefinido,Barragem/Barramento/Dique,Não,0.0,0.0,0,0.0,0.0,0,4.0
201,Medrado 1,CIA DE FERRO LIGAS DA BAHIA FERBASA,15141799000103,BA,ANDORINHA,-10.314166666666667,-39.76722222222222,Sul do Equador,Média,Baixa,Não,Não,Sem emergência,-,-,Barragem/Barramento/Dique,Não,0.0,0.0,3,0.0,0.0,0,6.5
202,Medrado 2,CIA DE FERRO LIGAS DA BAHIA FERBASA,15141799000103,BA,ANDORINHA,-10.314916666666667,-39.76583333333333,Sul do Equador,Média,Baixa,Não,Não,Sem emergência,-,-,Barragem/Barramento/Dique,Não,0.0,0.0,3,0.0,0.0,0,6.5
203,Medrado 3,CIA DE FERRO LIGAS DA BAHIA FERBASA,15141799000103,BA,ANDORINHA,-10.315555555555557,-39.76583333333333,Sul do Equador,Média,Baixa,Não,Não,Sem emergência,-,-,Barragem/Barramento/Dique,Não,0.0,0.0,3,0.0,0.0,0,6.5
204,BARRAGEM USINA/CIP - LAGO 1 E 2,FAZENDA BRASILEIRO DESENVOLVIMENTO MINERAL LTDA,22104045000149,BA,BARROCAS,-11.449666666666667,-39.089666666666666,Sul do Equador,Baixa,Alta,Sim,Sim,Sem emergência,1º Campanha 2024 - Atestado,1º Campanha 2023 - Atestado,Barragem/Barramento/Dique,Não,0.0,0.0,0,0.0,0.0,0,12.0
205,BARRAGEM USINA/CIP - LAGO 3,FAZENDA BRASILEIRO DESENVOLVIMENTO MINERAL LTDA,22104045000149,BA,BARROCAS,-11.447133888888889,-39.071195833333334,Sul do Equador,Baixa,Alta,Sim,Sim,Sem emergência,1º Campanha 2024 - Atestado,1º Campanha 2023 - Atestado,Barragem/Barramento/Dique,Não,0.0,0.0,0,0.0,0.0,0,0.01
206,BARRAGEM USINA/CIP - LAGO 4,FAZENDA BRASILEIRO DESENVOLVIMENTO MINERAL LTDA,22104045000149,BA,BARROCAS,-11.448055555555555,-39.09805555555556,Sul do Equador,Baixa,Alta,Sim,Sim,Sem emergência,1º Campanha 2024 - Atestado,1º Campanha 2023 - Atestado,Barragem/Barramento/Dique,Não,0.0,0.0,0,0.0,0.0,0,0.01
207,BACIA DE SEDIMENTO DA USINA DE TRATAMENTO,MAGNESITA MINERACAO S.A.,00592603000120,BA,BRUMADO,-14.233777777777776,-41.71969444444445,Sul do Equador,Média,Baixa,Não,Não,Sem emergência,-,-,Barragem/Barramento/Dique,Não,0.0,0.0,3,0.0,0.0,0,5.0
208,BARRAGEM DE DEPOSIÇÃO DE LAMA,XILOLITE S/A,62477088000194,BA,BRUMADO,-14.097930555555557,-41.68920555555555,Sul do Equador,Média,Baixa,Não,Não,Sem emergência,-,-,Barragem/Barramento/Dique,Não,0.0,0.0,3,0.0,0.0,0,60.0
209,TQ 6301 A - POND 1 A,INDUSTRIAS NUCLEARES DO BRASIL S.A - INB,00322818003570,BA,CAETITÉ,-13.835227777777778,-42.281702777777774,Sul do Equador,Média,Média,Sim,Sim,Sem emergência,-,-,Barragem/Barramento/Dique,Não,0.0,0.0,0,0.0,0.0,0,0.0
210,TQ 6301 B - POND 1 B,INDUSTRIAS NUCLEARES DO BRASIL S.A - INB,00322818003570,BA,CAETITÉ,-13.834747222222223,-42.281169444444444,Sul do Equador,Média,Média,Sim,Sim,Sem emergência,-,-,Barragem/Barramento/Dique,Não,0.0,0.0,0,0.0,0.0,0,0.01
211,TQ 6302 - POND 2,INDUSTRIAS NUCLEARES DO BRASIL S.A - INB,00322818003570,BA,CAETITÉ,-13.835941666666667,-42.28261944444444,Sul do Equador,Média,Média,Sim,Sim,Sem emergência,-,-,Barragem/Barramento/Dique,Não,0.0,0.0,0,0.0,0.0,0,0.01
212,TQ 6303 - POND 3,INDUSTRIAS NUCLEARES DO BRASIL S.A - INB,00322818003570,BA,CAETITÉ,-13.836108333333334,-42.284283333333335,Sul do Equador,Média,Média,Sim,Sim,Sem emergência,-,-,Barragem/Barramento/Dique,Não,0.0,0.0,0,0.0,0.0,0,0.01
213,TQ 63202 - Bacia de Finos Cachoeira,INDUSTRIAS NUCLEARES DO BRASIL S.A - INB,00322818003570,BA,CAETITÉ,-13.828388888888888,-42.287791666666664,Sul do Equador,Média,Baixa,Não,Não,Sem emergência,-,-,Barragem/Barramento/Dique,Não,0.0,0.0,3,0.0,0.0,0,0.0
214,TQ 63201 - Pré Bacia Cachoeira,INDUSTRIAS NUCLEARES DO BRASIL S.A - INB,00322818003570,BA,CAETITÉ,-13.829672222222221,-42.287369444444444,Sul do Equador,Alta,Baixa,Não,Sim,Emergência Nivel 1,-,-,Barragem/Barramento/Dique,Não,0.0,0.0,3,0.0,0.0,0,0.01
215,Cava Camarinha,CIA DE FERRO LIGAS DA BAHIA FERBASA,15141799000103,BA,CAMPO FORMOSO,-10.54561111111111,-40.42519444444444,Sul do Equador,Média,Baixa,Não,Não,Sem emergência,-,-,Cava com Barramento Construído,Não,0.0,0.0,1,0.0,0.0,0,6.0
216,Cava Pedrinhas,CIA DE FERRO LIGAS DA BAHIA FERBASA,15141799000103,BA,CAMPO FORMOSO,-10.545,-40.41455555555555,Sul do Equador,Baixa,Alta,Sim,Sim,Sem emergência,-,-,Cava com Barramento Construído,Sim,1.0,0.0,1,0.0,0.0,0,6.0
217,Barragem de Rejeitos de Irecê,COMPANHIA BAIANA DE PESQUISA MINERAL CBPM,13554910000168,BA,IRECÊ,-11.311944444444444,-41.839444444444446,Sul do Equador,Média,Baixa,Não,Não,Sem emergência,-,-,Barragem/Barramento/Dique,Não,0.0,0.0,3,0.0,0.0,0,0.0
218,Dique Santa Rita,ATLANTIC NICKEL MINERACAO LTDA,74127010000129,BA,ITAGIBÁ,-14.196540833333334,-39.691649722222216,Sul do Equador,Média,Baixa,Não,Não,Sem emergência,-,-,Barragem/Barramento/Dique,Não,0.0,0.0,3,0.0,0.0,0,0.22
219,Barragem Santa Rita,ATLANTIC NICKEL MINERACAO LTDA,74127010000129,BA,ITAGIBÁ,-14.189108888888889,-39.69714083333333,Sul do Equador,Baixa,Alta,Sim,Sim,Sem emergência,1º Campanha 2024 - Atestado,1º Campanha 2023 - Atestado,Barragem/Barramento/Dique,Não,0.0,0.0,0,0.0,0.0,0,0.0
220,Barragem 01,JACOBINA MINERACAO E COMERCIO LTDA,42463174000130,BA,JACOBINA,-11.243638888888889,-40.52575,Sul do Equador,Média,Alta,Sim,Sim,Sem emergência,1º Campanha 2024 - Atestado,1º Campanha 2023 - Atestado,Barragem/Barramento/Dique,Sim,0.0,2.0,0,0.0,0.0,0,0.01
221,BARRAGEM 02,JACOBINA MINERACAO E COMERCIO LTDA,42463174000130,BA,JACOBINA,-11.23511111111111,-40.52908333333333,Sul do Equador,Baixa,Alta,Sim,Sim,Sem emergência,1º Campanha 2024 - Atestado,1º Campanha 2023 - Atestado,Barragem/Barramento/Dique,Não,0.0,0.0,0,0.0,0.0,0,0.01
222,Dique 3,MINERACAO CARAIBA S/A,42509257000113,BA,JAGUARARI,-9.831472222222223,-39.82491666666667,Sul do Equador,Média,Baixa,Não,Não,Sem emergência,-,-,Barragem/Barramento/Dique,Não,0.0,0.0,3,0.0,0.0,0,0.15
223,R22,MINERACAO CARAIBA S/A,42509257000113,BA,JAGUARARI,-9.861611111111111,-39.873083333333334,Sul do Equador,Média,Baixa,Não,Não,Sem emergência,-,-,Empilhamento drenado construído hidraulicamente e suscetível à liquefação,Não,0.0,0.0,4,0.0,0.0,0,0.15
224,R75,MINERACAO CARAIBA S/A,42509257000113,BA,JAGUARARI,-9.85286111111111,-39.868138888888886,Sul do Equador,Baixa,Baixa,Não,Não,Sem emergência,-,-,Empilhamento drenado construído hidraulicamente e suscetível à liquefação,Não,0.0,0.0,4,0.0,0.0,0,0.15
225,Pilha 01 - P1C1,MINERACAO CARAIBA S/A,42509257000113,BA,JAGUARARI,-9.852825,-39.862296666666666,Sul do Equador,Baixa,Baixa,Não,Não,Sem emergência,-,-,Empilhamento drenado construído hidraulicamente e suscetível à liquefação,Não,0.0,0.0,4,0.0,0.0,0,0.15
226,Pilha 01 P1C2,MINERACAO CARAIBA S/A,42509257000113,BA,JAGUARARI,-9.855442499999999,-39.86398722222222,Sul do Equador,Baixa,Baixa,Não,Não,Sem emergência,-,-,Empilhamento drenado construído hidraulicamente e suscetível à liquefação,Não,0.0,0.0,4,0.0,0.0,0,0.15
227,Pilha 01 - P1C3,MINERACAO CARAIBA S/A,42509257000113,BA,JAGUARARI,-9.854245833333334,-39.86653583333334,Sul do Equador,Baixa,Baixa,Não,Não,Sem emergência,-,-,Empilhamento drenado construído hidraulicamente e suscetível à liquefação,Não,0.0,0.0,4,0.0,0.0,0,0.15
228,PILHA11 - P11C4,MINERACAO CARAIBA S/A,42509257000113,BA,JAGUARARI,-9.861199722222223,-39.879016944444444,Sul do Equador,Baixa,Baixa,Não,Não,Sem emergência,-,-,Empilhamento drenado construído hidraulicamente e suscetível à liquefação,Não,0.0,0.0,4,0.0,0.0,0,0.15
229,Barragem MCSA,MINERACAO CARAIBA S/A,42509257000113,BA,JAGUARARI,-9.851138888888888,-39.82658333333334,Sul do Equador,Baixa,Média,Não,Sim,Sem emergência,1º Campanha 2024 - Atestado,1º Campanha 2023 - Indefinido,Barragem/Barramento/Dique,Sim,0.0,2.0,0,0.0,0.0,0,0.15
230,PILHA 01 - PIC17,MINERACAO CARAIBA S/A,42509257000113,BA,JAGUARARI,-9.851531944444444,-39.863911944444446,Sul do Equador,Baixa,Baixa,Não,Não,Sem emergência,-,-,Empilhamento drenado construído hidraulicamente e suscetível à liquefação,Não,0.0,0.0,4,0.0,0.0,0,0.15
231,PILHA 06 - P6C5,MINERACAO CARAIBA S/A,42509257000113,BA,JAGUARARI,-9.880839722222223,-39.87318277777778,Sul do Equador,Baixa,Baixa,Não,Não,Sem emergência,-,-,Empilhamento drenado construído hidraulicamente e suscetível à liquefação,Não,0.0,0.0,4,0.0,0.0,0,0.15
232,Pilha 07 - P7C2,MINERACAO CARAIBA S/A,42509257000113,BA,JAGUARARI,-9.875618888888889,-39.87270083333333,Sul do Equador,Baixa,Baixa,Não,Não,Sem emergência,-,-,Empilhamento drenado construído hidraulicamente e suscetível à liquefação,Não,0.0,0.0,4,0.0,0.0,0,0.15
233,PILHA 11 - P11C1,MINERACAO CARAIBA S/A,42509257000113,BA,JAGUARARI,-9.86087888888889,-39.880362777777776,Sul do Equador,Média,Baixa,Não,Não,Sem emergência,-,-,Empilhamento drenado construído hidraulicamente e suscetível à liquefação,Não,0.0,0.0,4,0.0,0.0,0,0.15
234,PILHA 11 - P11C2,MINERACAO CARAIBA S/A,42509257000113,BA,JAGUARARI,-9.862105,-39.88049777777778,Sul do Equador,Baixa,Baixa,Não,Não,Sem emergência,-,-,Empilhamento drenado construído hidraulicamente e suscetível à liquefação,Não,0.0,0.0,4,0.0,0.0,0,0.15
235,PILHA11 - P11C3,MINERACAO CARAIBA S/A,42509257000113,BA,JAGUARARI,-9.863473888888889,-39.87994888888889,Sul do Equador,Baixa,Baixa,Não,Não,Sem emergência,-,-,Empilhamento drenado construído hidraulicamente e suscetível à liquefação,Não,0.0,0.0,4,0.0,0.0,0,0.15
236,PILHA 05 - P5C09,MINERACAO CARAIBA S/A,42509257000113,BA,JAGUARARI,-9.879863333333335,-39.8662025,Sul do Equador,Baixa,Baixa,Não,Não,Sem emergência,-,-,Empilhamento drenado construído hidraulicamente e suscetível à liquefação,Não,0.0,0.0,4,0.0,0.0,0,0.15
237,PILHA 01 - PIC1A,MINERACAO CARAIBA S/A,42509257000113,BA,JAGUARARI,-9.85333,-39.86157888888889,Sul do Equador,Baixa,Baixa,Não,Não,Sem emergência,-,-,Empilhamento drenado construído hidraulicamente e suscetível à liquefação,Não,0.0,0.0,4,0.0,0.0,0,0.15
238,PILHASUL - PCS1,MINERACAO CARAIBA S/A,42509257000113,BA,JAGUARARI,-9.873844722222223,-39.87090194444445,Sul do Equador,Baixa,Baixa,Não,Não,Sem emergência,-,-,Empilhamento drenado construído hidraulicamente e suscetível à liquefação,Não,0.0,0.0,4,0.0,0.0,0,0.15
239,PILHASUL - PCS2,MINERACAO CARAIBA S/A,42509257000113,BA,JAGUARARI,-9.872836944444446,-39.871659722222226,Sul do Equador,Baixa,Baixa,Não,Não,Sem emergência,-,-,Barragem/Barramento/Dique,Não,0.0,0.0,3,0.0,0.0,0,0.15
240,PILHASUL - PCS3,MINERACAO CARAIBA S/A,42509257000113,BA,JAGUARARI,-9.87293888888889,-39.871030833333336,Sul do Equador,Baixa,Baixa,Não,Não,Sem emergência,-,-,Barragem/Barramento/Dique,Não,0.0,0.0,3,0.0,0.0,0,0.15
241,PILHA 01 - PIC16,MINERACAO CARAIBA S/A,42509257000113,BA,JAGUARARI,-9.851265,-39.86499777777778,Sul do Equador,Baixa,Baixa,Não,Não,Sem emergência,-,-,Barragem/Barramento/Dique,Não,0.0,0.0,3,0.0,0.0,0,0.12
242,PILHA07-C1,MINERACAO CARAIBA S/A,42509257000113,BA,JAGUARARI,-9.875987777777778,-39.87161861111111,Sul do Equador,Média,Baixa,Não,Não,Sem emergência,-,-,Empilhamento drenado construído hidraulicamente e suscetível à liquefação,Não,0.0,0.0,4,0.0,0.0,0,0.15
243,PILHA05-XC03,MINERACAO CARAIBA S/A,42509257000113,BA,JAGUARARI,-9.874896944444444,-39.864965833333336,Sul do Equador,Baixa,Baixa,Não,Não,Sem emergência,-,-,Empilhamento drenado construído hidraulicamente e suscetível à liquefação,Não,0.0,0.0,4,0.0,0.0,0,0.15
244,PILHA 06 - P6C3,MINERACAO CARAIBA S/A,42509257000113,BA,JAGUARARI,-9.878252777777778,-39.87231083333334,Sul do Equador,Baixa,Baixa,Não,Não,Sem emergência,-,-,Empilhamento drenado construído hidraulicamente e suscetível à liquefação,Não,0.0,0.0,4,0.0,0.0,0,0.15
245,PILHA 01 - P1C14,MINERACAO CARAIBA S/A,42509257000113,BA,JAGUARARI,-9.85697,-39.86570777777778,Sul do Equador,Baixa,Baixa,Não,Não,Sem emergência,-,-,Empilhamento drenado construído hidraulicamente e suscetível à liquefação,Não,0.0,0.0,4,0.0,0.0,0,0.15
246,PILHA 05 - P5C07,MINERACAO CARAIBA S/A,42509257000113,BA,JAGUARARI,-9.88128888888889,-39.86716972222222,Sul do Equador,Baixa,Baixa,Não,Não,Sem emergência,-,-,Empilhamento drenado construído hidraulicamente e suscetível à liquefação,Não,0.0,0.0,4,0.0,0.0,0,0.15
247,PILHA 05 - P5C08,MINERACAO CARAIBA S/A,42509257000113,BA,JAGUARARI,-9.877543888888889,-39.867874444444446,Sul do Equador,Baixa,Baixa,Não,Não,Sem emergência,-,-,Barragem/Barramento/Dique,Não,0.0,0.0,3,0.0,0.0,0,0.16
248,P6C02,MINERACAO CARAIBA S/A,42509257000113,BA,JAGUARARI,-9.879062777777778,-39.871405833333334,Sul do Equador,Baixa,Baixa,Não,Não,Sem emergência,-,-,Empilhamento drenado construído hidraulicamente e suscetível à liquefação,Não,0.0,0.0,4,0.0,0.0,0,0.15
249,PILHA01-C10,MINERACAO CARAIBA S/A,42509257000113,BA,JAGUARARI,-9.852604722222221,-39.86609694444444,Sul do Equador,Baixa,Baixa,Não,Não,Sem emergência,-,-,Empilhamento drenado construído hidraulicamente e suscetível à liquefação,Não,0.0,0.0,4,0.0,0.0,0,0.15
250,PILHA01-C11,MINERACAO CARAIBA S/A,42509257000113,BA,JAGUARARI,-9.853491944444444,-39.86364277777778,Sul do Equador,Baixa,Baixa,Não,Não,Sem emergência,-,-,Empilhamento drenado construído hidraulicamente e suscetível à liquefação,Não,0.0,0.0,4,0.0,0.0,0,0.15
251,PILHA01-C12,MINERACAO CARAIBA S/A,42509257000113,BA,JAGUARARI,-9.853759166666666,-39.861645,Sul do Equador,Média,Baixa,Não,Não,Sem emergência,-,-,Empilhamento drenado construído hidraulicamente e suscetível à liquefação,Não,0.0,0.0,4,0.0,0.0,0,0.15
252,PILHA01-C13,MINERACAO CARAIBA S/A,42509257000113,BA,JAGUARARI,-9.85637111111111,-39.864937222222224,Sul do Equador,Baixa,Baixa,Não,Não,Sem emergência,-,-,Empilhamento drenado construído hidraulicamente e suscetível à liquefação,Não,0.0,0.0,4,0.0,0.0,0,0.15
253,PILHA05-C06,MINERACAO CARAIBA S/A,42509257000113,BA,JAGUARARI,-9.878395000000001,-39.86323194444444,Sul do Equador,Média,Baixa,Não,Não,Sem emergência,-,-,Empilhamento drenado construído hidraulicamente e suscetível à liquefação,Não,0.0,0.0,4,0.0,0.0,0,0.15
254,Pilha 05 - P5XC2,MINERACAO CARAIBA S/A,42509257000113,BA,JAGUARARI,-9.875650277777778,-39.86521861111111,Sul do Equador,Baixa,Baixa,Não,Não,Sem emergência,-,-,Empilhamento drenado construído hidraulicamente e suscetível à liquefação,Não,0.0,0.0,4,0.0,0.0,0,0.15
255,BARAÚNA - PBC1,MINERACAO CARAIBA S/A,42509257000113,BA,JAGUARARI,-9.875388888888889,-39.86942694444444,Sul do Equador,Baixa,Baixa,Não,Não,Sem emergência,-,-,Empilhamento drenado construído hidraulicamente e suscetível à liquefação,Não,0.0,0.0,4,0.0,0.0,0,0.15
256,BARAÚNA - PBC2,MINERACAO CARAIBA S/A,42509257000113,BA,JAGUARARI,-9.87485888888889,-39.87146194444445,Sul do Equador,Baixa,Baixa,Não,Não,Sem emergência,-,-,Empilhamento drenado construído hidraulicamente e suscetível à liquefação,Não,0.0,0.0,4,0.0,0.0,0,0.15
257,BARAÚNA - PBC3,MINERACAO CARAIBA S/A,42509257000113,BA,JAGUARARI,-9.87446388888889,-39.87223888888889,Sul do Equador,Baixa,Baixa,Não,Não,Sem emergência,-,-,Empilhamento drenado construído hidraulicamente e suscetível à liquefação,Não,0.0,0.0,4,0.0,0.0,0,0.15
258,P6C4,MINERACAO CARAIBA S/A,42509257000113,BA,JAGUARARI,-9.876943888888889,-39.870152777777776,Sul do Equador,Baixa,Baixa,Não,Não,Sem emergência,-,-,Barragem/Barramento/Dique,Não,0.0,0.0,3,0.0,0.0,0,0.15
259,P6C01,MINERACAO CARAIBA S/A,42509257000113,BA,JAGUARARI,-9.878210000000001,-39.870066944444446,Sul do Equador,Baixa,Baixa,Não,Não,Sem emergência,-,-,Empilhamento drenado construído hidraulicamente e suscetível à liquefação,Não,0.0,0.0,4,0.0,0.0,0,0.0
260,Pilha 05 - P5C1,MINERACAO CARAIBA S/A,42509257000113,BA,JAGUARARI,-9.879488333333335,-39.86517,Sul do Equador,Baixa,Baixa,Não,Não,Sem emergência,-,-,Empilhamento drenado construído hidraulicamente e suscetível à liquefação,Não,0.0,0.0,4,0.0,0.0,0,0.15
261,Pilha 05 - P5C2,MINERACAO CARAIBA S/A,42509257000113,BA,JAGUARARI,-9.876857777777778,-39.86816888888889,Sul do Equador,Baixa,Baixa,Não,Não,Sem emergência,-,-,Empilhamento drenado construído hidraulicamente e suscetível à liquefação,Não,0.0,0.0,4,0.0,0.0,0,0.15
262,Pilha 05 - P5C3,MINERACAO CARAIBA S/A,42509257000113,BA,JAGUARARI,-9.880159166666667,-39.864240555555554,Sul do Equador,Baixa,Baixa,Não,Não,Sem emergência,-,-,Empilhamento drenado construído hidraulicamente e suscetível à liquefação,Não,0.0,0.0,4,0.0,0.0,0,0.15
263,Pilha 05 - P5C4,MINERACAO CARAIBA S/A,42509257000113,BA,JAGUARARI,-9.875204722222223,-39.86891694444444,Sul do Equador,Baixa,Baixa,Não,Não,Sem emergência,-,-,Empilhamento drenado construído hidraulicamente e suscetível à liquefação,Não,0.0,0.0,4,0.0,0.0,0,0.15
264,Pilha 05 - P5C5,MINERACAO CARAIBA S/A,42509257000113,BA,JAGUARARI,-9.87887388888889,-39.86882,Sul do Equador,Baixa,Baixa,Não,Não,Sem emergência,-,-,Empilhamento drenado construído hidraulicamente e suscetível à liquefação,Não,0.0,0.0,4,0.0,0.0,0,0.15
265,Pilha 05 - XC1,MINERACAO CARAIBA S/A,42509257000113,BA,JAGUARARI,-9.877211666666668,-39.86453888888889,Sul do Equador,Baixa,Baixa,Não,Não,Sem emergência,-,-,Empilhamento drenado construído hidraulicamente e suscetível à liquefação,Não,0.0,0.0,4,0.0,0.0,0,0.15
266,Pilha 01 - P1C4,MINERACAO CARAIBA S/A,42509257000113,BA,JAGUARARI,-9.855460833333334,-39.86725583333333,Sul do Equador,Baixa,Baixa,Não,Não,Sem emergência,-,-,Empilhamento drenado construído hidraulicamente e suscetível à liquefação,Não,0.0,0.0,4,0.0,0.0,0,0.15
267,Pilha 01 - P1C5,MINERACAO CARAIBA S/A,42509257000113,BA,JAGUARARI,-9.852129999999999,-39.86334388888889,Sul do Equador,Baixa,Baixa,Não,Não,Sem emergência,-,-,Barragem/Barramento/Dique,Não,0.0,0.0,3,0.0,0.0,0,0.16
268,Pilha 01 - P1C6,MINERACAO CARAIBA S/A,42509257000113,BA,JAGUARARI,-9.853056944444445,-39.86494416666667,Sul do Equador,Baixa,Baixa,Não,Não,Sem emergência,-,-,Empilhamento drenado construído hidraulicamente e suscetível à liquefação,Não,0.0,0.0,4,0.0,0.0,0,0.15
269,Pilha 01 - P1C7,MINERACAO CARAIBA S/A,42509257000113,BA,JAGUARARI,-9.855352777777778,-39.86511083333333,Sul do Equador,Baixa,Baixa,Não,Não,Sem emergência,-,-,Empilhamento drenado construído hidraulicamente e suscetível à liquefação,Não,0.0,0.0,4,0.0,0.0,0,0.15
270,Pilha 01 - P1C8,MINERACAO CARAIBA S/A,42509257000113,BA,JAGUARARI,-9.857335555555554,-39.86335972222222,Sul do Equador,Baixa,Baixa,Não,Não,Sem emergência,-,-,Empilhamento drenado construído hidraulicamente e suscetível à liquefação,Não,0.0,0.0,4,0.0,0.0,0,0.15
271,Pilha 01 - P1C9,MINERACAO CARAIBA S/A,42509257000113,BA,JAGUARARI,-9.855806944444444,-39.862769722222225,Sul do Equador,Baixa,Baixa,Não,Não,Sem emergência,-,-,Empilhamento drenado construído hidraulicamente e suscetível à liquefação,Não,0.0,0.0,4,0.0,0.0,0,0.16
272,BARRAGEM 03,SAMACA FERROS LTDA,16682218000103,BA,MAIQUINIQUE,-15.788333333333334,-40.323055555555555,Sul do Equador,Não se aplica,Não se aplica,Não,Não,Sem emergência,-,-,Barragem/Barramento/Dique,Sim,2.0,0.0,3,0.0,0.0,0,3.08
273,Barragem 01,SAMACA FERROS LTDA,16682218000103,BA,MAIQUINIQUE,-15.777333333333335,-40.32233333333334,Sul do Equador,Alta,Média,Não,Sim,Emergência Nivel 1,1º Campanha 2024 - Atestado,1º Campanha 2023 - Indefinido,Barragem/Barramento/Dique,Não,0.0,0.0,0,0.0,0.0,0,3.05
274,Barragem 02,SAMACA FERROS LTDA,16682218000103,BA,MAIQUINIQUE,-15.778333333333334,-40.31783333333334,Sul do Equador,Alta,Média,Não,Sim,Emergência Nivel 1,1º Campanha 2024 - Atestado,1º Campanha 2023 - Indefinido,Barragem/Barramento/Dique,Não,0.0,0.0,0,0.0,0.0,0,0.0
275,DIQUE 2,SAMACA FERROS LTDA,16682218000103,BA,MAIQUINIQUE,-15.780347222222224,-40.31443055555555,Sul do Equador,Média,Média,Não,Sim,Sem emergência,1º Campanha 2024 - Atestado,1º Campanha 2023 - Indefinido,Barragem/Barramento/Dique,Não,0.0,0.0,0,0.0,0.0,0,3.08
276,Bacia de Rejeito Não Magnético 06,LARGO VANADIO DE MARACAS S.A,15191786000149,BA,MARACÁS,-14.161150555555556,-41.159390555555554,Sul do Equador,Não se aplica,Não se aplica,Não,Não,Sem emergência,-,-,Barragem/Barramento/Dique,Não,0.0,0.0,3,0.0,0.0,0,0.3
277,Barragem de rejeito não magnético 02,LARGO VANADIO DE MARACAS S.A,15191786000149,BA,MARACÁS,-13.686736388888889,-40.69166166666666,Sul do Equador,Baixa,Média,Não,Sim,Sem emergência,1º Campanha 2024 - Atestado,1º Campanha 2023 - Indefinido,Barragem/Barramento/Dique,Não,0.0,0.0,0,0.0,0.0,0,0.3
278,Barragem de rejeito não magnético 03,LARGO VANADIO DE MARACAS S.A,15191786000149,BA,MARACÁS,-13.68725,-40.689138888888884,Sul do Equador,Baixa,Média,Não,Sim,Sem emergência,1º Campanha 2024 - Atestado,1º Campanha 2023 - Indefinido,Barragem/Barramento/Dique,Não,0.0,0.0,0,0.0,0.0,0,0.0
279,Barragem de Rejeito Não Magnético 04,LARGO VANADIO DE MARACAS S.A,15191786000149,BA,MARACÁS,-13.68993611111111,-40.69147222222222,Sul do Equador,Baixa,Média,Não,Sim,Sem emergência,1º Campanha 2024 - Atestado,1º Campanha 2023 - Indefinido,Barragem/Barramento/Dique,Não,0.0,0.0,0,0.0,0.0,0,0.3
280,BARRAGEM USINA SANTALUZ BENEFICIAMENTO - BII,MAGNESITA MINERACAO S.A.,00592603000120,BA,SANTALUZ,-11.260280555555555,-39.35756111111111,Sul do Equador,Média,Baixa,Não,Não,Sem emergência,-,-,Barragem/Barramento/Dique,Não,0.0,0.0,3,0.0,0.0,0,11.0
281,BARRAGEM USINA SANTALUZ BENEFICIAMENTO - BIII ,MAGNESITA MINERACAO S.A.,00592603000120,BA,SANTALUZ,-11.260519444444444,-39.35755555555556,Sul do Equador,Média,Baixa,Não,Não,Sem emergência,-,-,Barragem/Barramento/Dique,Não,0.0,0.0,3,0.0,0.0,0,11.0
282,BARRAGEM USINA SANTALUZ BENEFICIAMENTO BI,MAGNESITA MINERACAO S.A.,00592603000120,BA,SANTALUZ,-11.26008888888889,-39.35758333333334,Sul do Equador,Média,Baixa,Não,Não,Sem emergência,-,-,Barragem/Barramento/Dique,Não,0.0,0.0,3,0.0,0.0,0,6.37
283,BARRAGEM DE FLOTAÇÃO,SANTA LUZ DESENVOLVIMENTO MINERAL LTDA,22103965000142,BA,SANTALUZ,-11.003444444444444,-39.28702777777777,Sul do Equador,Baixa,Alta,Sim,Sim,Sem emergência,1º Campanha 2024 - Atestado,1º Campanha 2023 - Atestado,Barragem/Barramento/Dique,Não,0.0,0.0,0,0.0,0.0,0,0.52
284,BARRAGEM DE LIXIVIAÇÃO,SANTA LUZ DESENVOLVIMENTO MINERAL LTDA,22103965000142,BA,SANTALUZ,-11.003638888888888,-39.30083333333333,Sul do Equador,Baixa,Alta,Sim,Sim,Sem emergência,1º Campanha 2024 - Atestado,1º Campanha 2023 - Atestado,Barragem/Barramento/Dique,Sim,0.0,1.0,0,0.0,0.0,0,11.0
285,TANQUE DE DECANTAÇÃO,PEDREIRAS BAHIA LTDA,34089417000194,BA,SIMÕES FILHO,-12.856777777777777,-38.40441666666666,Sul do Equador,Média,Baixa,Não,Não,Sem emergência,-,-,Barragem/Barramento/Dique,Não,0.0,0.0,3,0.0,0.0,0,0.0
286,Barragem Santa Helena,COMPANHIA BRASILEIRA DE BENTONITA LTDA,04885978000139,BA,VITÓRIA DA CONQUISTA,-14.811214722222223,-41.004976944444444,Sul do Equador,Média,Baixa,Não,Não,Sem emergência,-,-,Barragem/Barramento/Dique,Não,0.0,0.0,3,0.0,0.0,0,0.0
287,SANTO ANTÔNIO,"NIKI MINERACAO, COMERCIO E EXPORTACAO LTDA.",08667139000103,MG,ANTÔNIO DIAS,-19.545458333333336,-43.03093611111111,Sul do Equador,Média,Baixa,Não,Não,Sem emergência,-,-,Barragem/Barramento/Dique,Não,0.0,0.0,3,0.0,0.0,0,0.0
288,Barragem B1,MINERACAO POSITIVA LTDA EM,16800211000149,MG,ANTÔNIO DIAS,-19.549972222222223,-43.02225,Sul do Equador,Média,Baixa,Não,Não,Sem emergência,-,-,Barragem/Barramento/Dique,Não,0.0,0.0,3,0.0,0.0,0,0.0
289,Barragem B3,MINERACAO POSITIVA LTDA EM,16800211000149,MG,ANTÔNIO DIAS,-19.547583333333336,-43.02152777777778,Sul do Equador,Média,Baixa,Não,Não,Sem emergência,-,-,Barragem/Barramento/Dique,Não,0.0,0.0,3,0.0,0.0,0,0.0
290,Barragem 1,COMPANHIA MINERADORA DO PIROCLORO DE ARAXA,17806779000130,MG,ARAXÁ,-19.65972222222222,-46.926944444444445,Sul do Equador,Baixa,Baixa,Não,Não,Sem emergência,-,-,Barragem/Barramento/Dique,Não,0.0,0.0,3,0.0,0.0,0,0.0
291,Dique dos Búfalos,MOSAIC FERTILIZANTES P&K LTDA.,33931486001455,MG,ARAXÁ,-19.67342777777778,-46.97199888888889,Sul do Equador,Baixa,Baixa,Não,Não,Sem emergência,-,-,Barragem/Barramento/Dique,Não,0.0,0.0,3,0.0,0.0,0,0.0
292,Dique dos Borges,MOSAIC FERTILIZANTES P&K LTDA.,33931486001455,MG,ARAXÁ,-19.653326944444444,-46.95619777777778,Sul do Equador,Baixa,Baixa,Não,Não,Sem emergência,-,-,Barragem/Barramento/Dique,Não,0.0,0.0,3,0.0,0.0,0,0.0
293,Barragem A,MOSAIC FERTILIZANTES P&K LTDA.,33931486001455,MG,ARAXÁ,-19.649722222222223,-46.94611111111111,Sul do Equador,Baixa,Alta,Sim,Sim,Sem emergência,1º Campanha 2024 - Atestado,1º Campanha 2023 - Atestado,Barragem/Barramento/Dique,Não,0.0,0.0,0,0.0,0.0,0,0.0
294,Barragem A0,MOSAIC FERTILIZANTES P&K LTDA.,33931486001455,MG,ARAXÁ,-19.610835,-47.02936583333333,Sul do Equador,Baixa,Alta,Sim,Sim,Sem emergência,1º Campanha 2024 - Atestado,1º Campanha 2023 - Atestado,Barragem/Barramento/Dique,Não,0.0,0.0,0,0.0,0.0,0,6.11
295,Barragem B1/B4,MOSAIC FERTILIZANTES P&K LTDA.,33931486001455,MG,ARAXÁ,-19.63361111111111,-46.99638888888889,Sul do Equador,Baixa,Alta,Sim,Sim,Sem emergência,1º Campanha 2024 - Atestado,1º Campanha 2023 - Atestado,Barragem/Barramento/Dique,Não,0.0,0.0,0,0.0,0.0,0,0.0
296,Barragem B6,MOSAIC FERTILIZANTES P&K LTDA.,33931486001455,MG,ARAXÁ,-19.611005833333333,-47.01284777777778,Sul do Equador,Baixa,Alta,Sim,Sim,Sem emergência,1º Campanha 2024 - Atestado,1º Campanha 2023 - Atestado,Barragem/Barramento/Dique,Não,0.0,0.0,0,0.0,0.0,0,6.11
297,Barragem E,MOSAIC FERTILIZANTES P&K LTDA.,33931486001455,MG,ARAXÁ,-19.65020388888889,-46.95232194444445,Sul do Equador,Baixa,Alta,Sim,Sim,Sem emergência,1º Campanha 2024 - Atestado,1º Campanha 2023 - Atestado,Barragem/Barramento/Dique,Não,0.0,0.0,0,0.0,0.0,0,0.0
298,Barragem F,MOSAIC FERTILIZANTES P&K LTDA.,33931486001455,MG,ARAXÁ,-19.654166666666665,-46.95305555555556,Sul do Equador,Baixa,Alta,Sim,Sim,Sem emergência,1º Campanha 2024 - Atestado,1º Campanha 2023 - Atestado,Barragem/Barramento/Dique,Não,0.0,0.0,0,0.0,0.0,0,0.0
299,Barragem B2,MOSAIC FERTILIZANTES P&K LTDA.,33931486001455,MG,ARAXÁ,-19.641352777777776,-46.973849722222226,Sul do Equador,Baixa,Baixa,Não,Sim,Sem emergência,1º Campanha 2024 - Atestado,1º Campanha 2023 - Atestado,Barragem/Barramento/Dique,Não,0.0,0.0,3,0.0,0.0,0,6.0
300,Barragem B5,MOSAIC FERTILIZANTES P&K LTDA.,33931486001455,MG,ARAXÁ,-19.616944444444446,-47.02111111111111,Sul do Equador,Baixa,Alta,Sim,Sim,Sem emergência,1º Campanha 2024 - Atestado,1º Campanha 2023 - Atestado,Barragem/Barramento/Dique,Não,0.0,0.0,0,0.0,0.0,0,0.0
301,Barragem da Mina II,COMPANHIA MINERADORA DO PIROCLORO DE ARAXA,17806779000130,MG,ARAXÁ,-19.657,-46.94018055555555,Sul do Equador,Baixa,Baixa,Não,Sim,Sem emergência,1º Campanha 2024 - Atestado,1º Campanha 2023 - Indefinido,Barragem/Barramento/Dique,Não,0.0,0.0,3,0.0,0.0,0,6.11
302,Barragem 03,CSN CIMENTOS S.A.,38282487000115,MG,ARCOS,-20.31343888888889,-45.57745555555556,Sul do Equador,Baixa,Alta,Sim,Sim,Nível de Alerta,1º Campanha 2024 - Atestado,1º Campanha 2023 - Não Atestado,Barragem/Barramento/Dique,Não,0.0,0.0,0,0.0,0.0,0,0.0
303,Barragem 02,CSN CIMENTOS S.A.,38282487000115,MG,ARCOS,-20.316561111111113,-45.58316111111112,Sul do Equador,Baixa,Alta,Sim,Sim,Nível de Alerta,1º Campanha 2024 - Atestado,1º Campanha 2023 - Não Atestado,Barragem/Barramento/Dique,Não,0.0,0.0,0,0.0,0.0,0,0.0
304,2,VALE S.A.,33592510000154,MG,BARÃO DE COCAIS,-19.973500277777777,-43.6037275,Sul do Equador,Baixa,Baixa,Não,Não,Sem emergência,-,-,Barragem/Barramento/Dique,Não,0.0,0.0,3,0.0,0.0,0,0.0
305,A - PDE Nordeste,VALE S.A.,33592510000154,MG,BARÃO DE COCAIS,-19.948728055555556,-43.58669972222223,Sul do Equador,Média,Baixa,Não,Não,Sem emergência,-,-,Barragem/Barramento/Dique,Não,0.0,0.0,3,0.0,0.0,0,20.01
306,C - PDE Nordeste,VALE S.A.,33592510000154,MG,BARÃO DE COCAIS,-19.938450833333334,-43.58381027777778,Sul do Equador,Média,Baixa,Não,Não,Sem emergência,-,-,Barragem/Barramento/Dique,Não,0.0,0.0,3,0.0,0.0,0,0.0
307,Fazendinha,VALE S.A.,33592510000154,MG,BARÃO DE COCAIS,-19.9717275,-43.60806222222222,Sul do Equador,Média,Baixa,Não,Não,Sem emergência,-,-,Barragem/Barramento/Dique,Não,0.0,0.0,3,0.0,0.0,0,0.0
308,Sul Superior,VALE S.A.,33592510000154,MG,BARÃO DE COCAIS,-19.970175555555553,-43.59686694444445,Sul do Equador,Alta,Alta,Sim,Sim,Emergência Nivel 3,1º Campanha 2024 - Não Atestado,1º Campanha 2023 - Atestado,Barragem/Barramento/Dique,Não,0.0,0.0,2,0.0,0.0,0,0.0
309,Norte/Laranjeiras,VALE S.A.,33592510000154,MG,BARÃO DE COCAIS,-19.84834222222222,-43.42172055555555,Sul do Equador,Alta,Alta,Sim,Sim,Emergência Nivel 1,1º Campanha 2024 - Não Atestado,1º Campanha 2023 - Atestado,Barragem/Barramento/Dique,Sim,0.0,1.0,0,40.0,10.0,1,0.0
310,Barragem Torto,VALE S.A.,33592510000154,MG,BARÃO DE COCAIS,-19.851347222222223,-43.41376944444444,Sul do Equador,Baixa,Alta,Sim,Sim,Sem emergência,1º Campanha 2024 - Atestado,1º Campanha 2023 - Atestado,Barragem/Barramento/Dique,Não,0.0,0.0,0,0.0,0.0,0,20.01
311,Bacia 01,ARCELORMITTAL BRASIL S.A.,17469701000177,MG,BELA VISTA DE MINAS,-19.784722222222225,-43.192027777777774,Sul do Equador,Baixa,Baixa,Não,Não,Sem emergência,-,-,Barragem/Barramento/Dique,Não,0.0,0.0,3,40.0,10.0,1,40.0
312,Bacia 07,ARCELORMITTAL BRASIL S.A.,17469701000177,MG,BELA VISTA DE MINAS,-19.78311111111111,-43.18311111111111,Sul do Equador,Média,Baixa,Não,Não,Sem emergência,-,-,Barragem/Barramento/Dique,Não,0.0,0.0,3,0.0,0.0,0,0.0
313,Bacia 08,ARCELORMITTAL BRASIL S.A.,17469701000177,MG,BELA VISTA DE MINAS,-19.784972222222223,-43.180166666666665,Sul do Equador,Média,Baixa,Não,Não,Sem emergência,-,-,Barragem/Barramento/Dique,Não,0.0,0.0,3,0.0,0.0,0,0.0
314,Bacia 09,ARCELORMITTAL BRASIL S.A.,17469701000177,MG,BELA VISTA DE MINAS,-19.777177777777776,-43.189425,Sul do Equador,Média,Baixa,Não,Não,Sem emergência,-,-,Barragem/Barramento/Dique,Não,0.0,0.0,3,0.0,0.0,0,0.0
315,Bacia 15,ARCELORMITTAL BRASIL S.A.,17469701000177,MG,BELA VISTA DE MINAS,-19.77631472222222,-43.191047777777776,Sul do Equador,Média,Baixa,Não,Não,Sem emergência,-,-,Barragem/Barramento/Dique,Não,0.0,0.0,3,0.0,0.0,0,0.0
316,Bacia 16,ARCELORMITTAL BRASIL S.A.,17469701000177,MG,BELA VISTA DE MINAS,-19.78609777777778,-43.17279694444444,Sul do Equador,Média,Baixa,Não,Não,Sem emergência,-,-,Barragem/Barramento/Dique,Não,0.0,0.0,3,0.0,0.0,0,0.0
317,Bacia 17,ARCELORMITTAL BRASIL S.A.,17469701000177,MG,BELA VISTA DE MINAS,-19.783826944444446,-43.165212777777775,Sul do Equador,Média,Baixa,Não,Não,Sem emergência,-,-,Barragem/Barramento/Dique,Não,0.0,0.0,3,0.0,0.0,0,0.0
318,BARRAGEM DE CONTENÇÃO DE ÁGUAS PLUVIAIS-DIQUE D-03,SICAL INDUSTRIAL LTDA.,19416627000156,MG,BELO HORIZONTE,-20.025280555555554,-44.013527777777774,Sul do Equador,Baixa,Baixa,Não,Não,Sem emergência,-,-,Barragem/Barramento/Dique,Não,0.0,0.0,3,0.0,0.0,0,0.0
319,Marés I,VALE S.A.,33592510000154,MG,BELO VALE,-20.42527777777778,-43.927861111111106,Sul do Equador,Baixa,Alta,Sim,Sim,Sem emergência,1º Campanha 2024 - Atestado,1º Campanha 2023 - Atestado,Barragem/Barramento/Dique,Não,0.0,0.0,0,0.0,0.0,0,0.0
320,Marés II,VALE S.A.,33592510000154,MG,BELO VALE,-20.433944444444446,-43.931555555555555,Sul do Equador,Baixa,Alta,Sim,Sim,Sem emergência,1º Campanha 2024 - Atestado,1º Campanha 2023 - Atestado,Barragem/Barramento/Dique,Não,0.0,0.0,0,0.0,0.0,0,0.0
321,Barragem 1 - Dique de Contenção,Construtora Martins Lanna Ltda.,19974518000154,MG,BETIM,-19.864936111111113,-44.09308444444445,Sul do Equador,Baixa,Baixa,Não,Não,Sem emergência,-,-,Barragem/Barramento/Dique,Não,0.0,0.0,3,0.0,0.0,0,0.0
322,Barragem 2 - Captação de Água,Construtora Martins Lanna Ltda.,19974518000154,MG,BETIM,-19.875955555555556,-44.10049166666667,Sul do Equador,Baixa,Baixa,Não,Não,Sem emergência,-,-,Barragem/Barramento/Dique,Não,0.0,0.0,3,0.0,0.0,0,0.0
323,DIQUE D,Brasmic Mineração Areia e Brita Ltda,22470777000152,MG,BETIM,-19.985555555555557,-44.12147222222222,Sul do Equador,Baixa,Alta,Sim,Sim,Sem emergência,1º Campanha 2024 - Atestado,1º Campanha 2023 - Atestado,Barragem/Barramento/Dique,Não,0.0,0.0,0,0.0,0.0,0,5.0
324,Dique IV,MINERACAO GERAL DO BRASIL S/A,60727120000117,MG,BRUMADINHO,-20.064777777777778,-44.02886111111111,Sul do Equador,Média,Baixa,Não,Não,Sem emergência,-,-,Barragem/Barramento/Dique,Não,0.0,0.0,3,0.0,0.0,0,0.0
325,Barragem B3,MINERACAO GERAL DO BRASIL S/A,60727120000117,MG,BRUMADINHO,-20.067444444444444,-44.02302777777778,Sul do Equador,Média,Baixa,Não,Não,Sem emergência,-,-,Barragem/Barramento/Dique,Não,0.0,0.0,3,0.0,0.0,0,42.05
326,DIQUE DE SAÍDA DE CAVA,EMPRESA DE MINERACAO ESPERANCA S A,33300971000106,MG,BRUMADINHO,-20.11202777777778,-44.220194444444445,Sul do Equador,Média,Baixa,Não,Não,Sem emergência,-,-,Barragem/Barramento/Dique,Não,0.0,0.0,3,0.0,0.0,0,0.0
327,BARRAGEM DE GABIÕES,EMPRESA DE MINERACAO ESPERANCA S A,33300971000106,MG,BRUMADINHO,-20.115694444444447,-44.218361111111115,Sul do Equador,Baixa,Baixa,Não,Não,Sem emergência,-,-,Barragem/Barramento/Dique,Não,0.0,0.0,3,0.0,0.0,0,0.0
328,SUMP DE CONTENÇÃO DE SEDIMENTOS,EMPRESA DE MINERACAO ESPERANCA S A,33300971000106,MG,BRUMADINHO,-20.110916666666668,-44.22408333333333,Sul do Equador,Média,Baixa,Não,Não,Sem emergência,-,-,Barragem/Barramento/Dique,Não,0.0,0.0,3,0.0,0.0,0,0.0
329,Dique 03,MINERACAO COMISA LTDA,03405415000133,MG,BRUMADINHO,-20.1216,-44.31937222222223,Sul do Equador,Média,Baixa,Não,Não,Sem emergência,-,-,Barragem/Barramento/Dique,Não,0.0,0.0,3,0.0,0.0,0,0.0
330,Dique 01,MINERACAO COMISA LTDA,03405415000133,MG,BRUMADINHO,-20.118047222222224,-44.319252777777784,Sul do Equador,Alta,Média,Não,Sim,Emergência Nivel 1,1º Campanha 2024 - Atestado,1º Campanha 2023 - Indefinido,Barragem/Barramento/Dique,Não,0.0,0.0,0,0.0,0.0,0,0.0
331,Capim Branco,VALE S.A.,33592510000154,MG,BRUMADINHO,-20.108272777777778,-44.07366777777778,Sul do Equador,Baixa,Média,Não,Sim,Sem emergência,1º Campanha 2024 - Atestado,1º Campanha 2023 - Atestado,Barragem/Barramento/Dique,Não,0.0,0.0,0,0.0,0.0,0,0.0
332,Barragem B1 - Mina Ipê,MINERACAO MORRO DO IPE S.A.,22902554000117,MG,BRUMADINHO,-20.119805555555555,-44.307472222222216,Sul do Equador,Baixa,Alta,Sim,Sim,Sem emergência,1º Campanha 2024 - Atestado,1º Campanha 2023 - Atestado,Barragem/Barramento/Dique,Sim,2.0,0.0,0,0.0,0.0,0,0.0
333,Dique B4,EMICON MINERACAO E TERRAPLENAGEM LIMITADA,16679953000168,MG,BRUMADINHO,-20.117583333333332,-44.317194444444446,Sul do Equador,Média,Alta,Sim,Sim,Nível de Alerta,1º Campanha 2024 - Atestado,1º Campanha 2023 - Não Atestado,Barragem/Barramento/Dique,Não,0.0,0.0,0,0.0,0.0,0,45.0
334,Menezes I,VALE S.A.,33592510000154,MG,BRUMADINHO,-20.11963888888889,-44.13922222222222,Sul do Equador,Baixa,Baixa,Não,Sim,Sem emergência,1º Campanha 2024 - Atestado,1º Campanha 2023 - Indefinido,Barragem/Barramento/Dique,Não,0.0,0.0,3,0.0,0.0,0,0.0
335,Menezes II,VALE S.A.,33592510000154,MG,BRUMADINHO,-20.128083333333333,-44.13827777777778,Sul do Equador,Baixa,Alta,Sim,Sim,Sem emergência,1º Campanha 2024 - Atestado,1º Campanha 2023 - Atestado,Barragem/Barramento/Dique,Não,0.0,0.0,0,0.0,0.0,0,0.0
336,VI,VALE S.A.,33592510000154,MG,BRUMADINHO,-20.119055555555555,-44.12441666666667,Sul do Equador,Baixa,Alta,Sim,Sim,Sem emergência,1º Campanha 2024 - Atestado,1º Campanha 2023 - Atestado,Barragem/Barramento/Dique,Não,0.0,0.0,0,0.0,0.0,0,0.0
337,VII,VALE S.A.,33592510000154,MG,BRUMADINHO,-20.104277777777778,-44.11966666666667,Sul do Equador,Baixa,Média,Não,Sim,Sem emergência,1º Campanha 2024 - Atestado,1º Campanha 2023 - Indefinido,Barragem/Barramento/Dique,Não,0.0,0.0,0,0.0,0.0,0,47.0
338,Barragem B1,MINERACAO GERAL DO BRASIL S/A,60727120000117,MG,BRUMADINHO,-20.064805555555555,-44.029222222222224,Sul do Equador,Baixa,Baixa,Não,Sim,Sem emergência,1º Campanha 2024 - Atestado,1º Campanha 2023 - Atestado,Barragem/Barramento/Dique,Não,0.0,0.0,0,0.0,0.0,0,0.0
339,Barragem B2,MINERACAO GERAL DO BRASIL S/A,60727120000117,MG,BRUMADINHO,-20.066305555555555,-44.02719444444444,Sul do Equador,Baixa,Baixa,Não,Sim,Sem emergência,1º Campanha 2024 - Atestado,1º Campanha 2023 - Atestado,Barragem/Barramento/Dique,Não,0.0,0.0,0,0.0,0.0,0,50.0
340,Santa Bárbara,VALLOUREC TUBOS DO BRASIL LTDA.,17170150000146,MG,BRUMADINHO,-20.16186111111111,-44.00622222222222,Sul do Equador,Baixa,Alta,Sim,Sim,Sem emergência,1º Campanha 2024 - Atestado,1º Campanha 2023 - Atestado,Barragem/Barramento/Dique,Não,0.0,0.0,0,0.0,0.0,0,0.0
341,Barragem B1A,EMICON MINERACAO E TERRAPLENAGEM LIMITADA,16679953000168,MG,BRUMADINHO,-20.122972222222224,-44.31258333333333,Sul do Equador,Alta,Alta,Sim,Sim,Emergência Nivel 1,1º Campanha 2024 - Atestado,1º Campanha 2023 - Não Atestado,Barragem/Barramento/Dique,Não,0.0,0.0,0,0.0,0.0,0,0.0
342,Barragem Quéias,EMICON MINERACAO E TERRAPLENAGEM LIMITADA,16679953000168,MG,BRUMADINHO,-20.126991944444445,-44.31611083333333,Sul do Equador,Alta,Alta,Sim,Sim,Emergência Nivel 1,1º Campanha 2024 - Não Atestado,1º Campanha 2023 - Não Atestado,Barragem/Barramento/Dique,Não,0.0,0.0,0,0.0,0.0,0,0.0
343,Dique B3,EMICON MINERACAO E TERRAPLENAGEM LIMITADA,16679953000168,MG,BRUMADINHO,-20.11936111111111,-44.31594444444444,Sul do Equador,Média,Alta,Sim,Sim,Nível de Alerta,1º Campanha 2024 - Atestado,1º Campanha 2023 - Não Atestado,Barragem/Barramento/Dique,Não,0.0,0.0,0,0.0,0.0,0,0.0
344,Dique Quéias - Captação de Água,MINERACAO COMISA LTDA,03405415000133,MG,BRUMADINHO,-20.126694444444446,-44.31613888888889,Sul do Equador,Média,Baixa,Não,Não,Sem emergência,-,-,Barragem/Barramento/Dique,Não,0.0,0.0,3,0.0,0.0,0,0.0
345,Dique - Pilha 2,Mib Mineração Ibirité Ltda,08578982000105,MG,BRUMADINHO,-20.129869444444445,-44.10256388888889,Sul do Equador,Baixa,Baixa,Não,Não,Sem emergência,-,-,Barragem/Barramento/Dique,Não,0.0,0.0,3,0.0,0.0,0,0.0
346,Dique - Pilha 4,Mib Mineração Ibirité Ltda,08578982000105,MG,BRUMADINHO,-20.123088055555556,-44.10646972222222,Sul do Equador,Baixa,Baixa,Não,Não,Sem emergência,-,-,Barragem/Barramento/Dique,Não,0.0,0.0,3,0.0,0.0,0,0.0
347,Dique Conquistinha,MINERACAO MORRO DO IPE S.A.,22902554000117,MG,BRUMADINHO,-20.1159,-44.29810277777778,Sul do Equador,Média,Baixa,Não,Não,Sem emergência,-,-,Barragem/Barramento/Dique,Não,0.0,0.0,3,0.0,0.0,0,50.0
348,Moita,MINERACAO SERRAS DO OESTE LIMITADA,28917748000172,MG,CAETÉ,-19.934925833333335,-43.649055833333335,Sul do Equador,Baixa,Alta,Sim,Sim,Sem emergência,1º Campanha 2024 - Atestado,1º Campanha 2023 - Atestado,Cava com Barramento Construído,Não,0.0,0.0,1,0.0,0.0,0,0.0
349,Barragem RG2W,MINERACAO SERRAS DO OESTE LIMITADA,28917748000172,MG,CAETÉ,-19.958252777777776,-43.63480888888889,Sul do Equador,Baixa,Alta,Sim,Sim,Sem emergência,1º Campanha 2024 - Atestado,1º Campanha 2023 - Atestado,Cava com Barramento Construído,Não,0.0,0.0,1,0.0,0.0,0,99.0
350,Bacia Nestor Figueiredo - BNF,INDUSTRIAS NUCLEARES DO BRASIL S.A - INB,00322818003650,MG,CALDAS,-21.94025388888889,-46.48911888888889,Sul do Equador,Média,Média,Não,Sim,Sem emergência,-,-,Barragem/Barramento/Dique,Não,0.0,0.0,0,0.0,0.0,0,99.0
351,BARRAGEM D4,INDUSTRIAS NUCLEARES DO BRASIL S.A - INB,00322818003650,MG,CALDAS,-21.96611111111111,-46.51111111111111,Sul do Equador,Alta,Alta,Sim,Sim,Emergência Nivel 1,1º Campanha 2024 - Atestado,1º Campanha 2023 - Indefinido,Barragem/Barramento/Dique,Sim,2.0,0.0,0,0.0,0.0,0,0.0
352,Barragem de Rejeitos - BAR,INDUSTRIAS NUCLEARES DO BRASIL S.A - INB,00322818003650,MG,CALDAS,-21.97076111111111,-46.49391111111111,Sul do Equador,Alta,Alta,Sim,Sim,Emergência Nivel 1,1º Campanha 2024 - Não Atestado,1º Campanha 2023 - Indefinido,Barragem/Barramento/Dique,Não,0.0,0.0,0,0.0,0.0,0,0.0
353,BARRAGEM B1,CIMENTO TUPI S.A. EM RECUPERACAO JUDICIAL,33039223000111,MG,CARANAÍBA,-20.903388888888887,-43.803888888888885,Sul do Equador,Média,Baixa,Não,Não,Sem emergência,-,-,Barragem/Barramento/Dique,Não,0.0,0.0,3,0.0,0.0,0,0.7
354,Dique de Captação,PEDREIRA UM VALEMIX LTDA,41716499000115,MG,CATAS ALTAS,-20.027475,-43.42413888888888,Sul do Equador,Média,Baixa,Não,Não,Sem emergência,-,-,Barragem/Barramento/Dique,Não,0.0,0.0,3,0.0,0.0,0,0.0
355,Dique IV,VALE S.A.,33592510000154,MG,CATAS ALTAS,-20.090833333333332,-43.41583333333333,Sul do Equador,Média,Baixa,Não,Não,Sem emergência,-,-,Barragem/Barramento/Dique,Não,0.0,0.0,3,0.0,0.0,0,0.0
356,Dique V,VALE S.A.,33592510000154,MG,CATAS ALTAS,-20.091666666666665,-43.41611111111111,Sul do Equador,Média,Baixa,Não,Não,Sem emergência,-,-,Barragem/Barramento/Dique,Não,0.0,0.0,3,0.0,0.0,0,0.0
357,Dique VII,VALE S.A.,33592510000154,MG,CATAS ALTAS,-20.098055555555554,-43.41416666666667,Sul do Equador,Média,Baixa,Não,Não,Sem emergência,-,-,Barragem/Barramento/Dique,Não,0.0,0.0,3,0.0,0.0,0,0.0
358,Mosquito,VALE S.A.,33592510000154,MG,CATAS ALTAS,-20.105474444444447,-43.40418222222222,Sul do Equador,Baixa,Alta,Sim,Sim,Sem emergência,1º Campanha 2024 - Atestado,1º Campanha 2023 - Atestado,Barragem/Barramento/Dique,Não,0.0,0.0,0,0.0,0.0,0,0.0
359,Barragem de Rejeitos,ANGLO AMERICAN MINERIO DE FERRO BRASIL S/A,02359572000430,MG,CONCEIÇÃO DO MATO DENTRO,-18.865222222222222,-43.40811111111111,Sul do Equador,Baixa,Alta,Sim,Sim,Sem emergência,1º Campanha 2024 - Atestado,1º Campanha 2023 - Atestado,Barragem/Barramento/Dique,Sim,0.0,6.0,0,0.0,0.0,0,0.0
360,Dique de Contenção de Sedimentos 02,ANGLO AMERICAN MINERIO DE FERRO BRASIL S/A,02359572000430,MG,CONCEIÇÃO DO MATO DENTRO,-18.889722222222222,-43.405277777777776,Sul do Equador,Baixa,Alta,Sim,Sim,Sem emergência,1º Campanha 2024 - Atestado,1º Campanha 2023 - Atestado,Barragem/Barramento/Dique,Não,0.0,0.0,0,0.0,0.0,0,0.0
361,Dique de Contenção de Sedimentos 03,ANGLO AMERICAN MINERIO DE FERRO BRASIL S/A,02359572000430,MG,CONCEIÇÃO DO MATO DENTRO,-18.92082888888889,-43.406573055555555,Sul do Equador,Baixa,Alta,Sim,Sim,Sem emergência,1º Campanha 2024 - Atestado,1º Campanha 2023 - Atestado,Barragem/Barramento/Dique,Não,0.0,0.0,0,0.0,0.0,0,0.0
362,Dique de Contenção de Sedimentos 04,ANGLO AMERICAN MINERIO DE FERRO BRASIL S/A,02359572000430,MG,CONCEIÇÃO DO MATO DENTRO,-18.93166666666667,-43.401666666666664,Sul do Equador,Baixa,Média,Não,Sim,Sem emergência,1º Campanha 2024 - Atestado,1º Campanha 2023 - Atestado,Barragem/Barramento/Dique,Não,0.0,0.0,0,0.0,0.0,0,0.0
363,Dique de Contenção de Sedimentos 05,ANGLO AMERICAN MINERIO DE FERRO BRASIL S/A,02359572000430,MG,CONCEIÇÃO DO MATO DENTRO,-18.935555555555556,-43.40119166666666,Sul do Equador,Baixa,Média,Não,Sim,Sem emergência,1º Campanha 2024 - Atestado,1º Campanha 2023 - Atestado,Barragem/Barramento/Dique,Não,0.0,0.0,0,0.0,0.0,0,0.0
364,Turmalina,MINERACAO SERRAS DO OESTE LIMITADA,28917748000172,MG,CONCEIÇÃO DO PARÁ,-19.746055555555557,-44.87441666666667,Sul do Equador,Baixa,Alta,Sim,Sim,Sem emergência,1º Campanha 2024 - Atestado,1º Campanha 2023 - Atestado,Barragem/Barramento/Dique,Sim,0.0,3.0,0,0.0,0.0,0,14.97
365,BARRAGEM DO LAGARTO,CSN MINERACAO S.A.,08902291000115,MG,CONGONHAS,-20.451651944444443,-43.90656583333333,Sul do Equador,Média,Baixa,Não,Não,Sem emergência,-,-,Barragem/Barramento/Dique,Não,0.0,0.0,3,0.0,0.0,0,0.01
366,Dique de Sedimentos da PDE Cava Sul,FERRO + MINERACAO S.A.,21256870000104,MG,CONGONHAS,-20.436508333333332,-43.87179166666667,Sul do Equador,Média,Baixa,Não,Não,Sem emergência,-,-,Barragem/Barramento/Dique,Não,0.0,0.0,3,0.0,0.0,0,0.0
367,Gambá,VALE S.A.,33592510000154,MG,CONGONHAS,-20.431333333333335,-43.88286111111111,Sul do Equador,Média,Baixa,Não,Não,Sem emergência,-,-,Barragem/Barramento/Dique,Não,0.0,0.0,3,0.0,0.0,0,0.0
368,Nova Baixo João Pereira,VALE S.A.,33592510000154,MG,CONGONHAS,-20.44013888888889,-43.905138888888885,Sul do Equador,Não se aplica,Não se aplica,Não,Não,Sem emergência,-,-,Barragem/Barramento/Dique,Não,0.0,0.0,3,0.0,0.0,0,0.0
369,Barnabé,VALE S.A.,33592510000154,MG,CONGONHAS,-20.425833333333333,-43.891777777777776,Sul do Equador,Baixa,Alta,Sim,Sim,Sem emergência,1º Campanha 2024 - Atestado,1º Campanha 2023 - Atestado,Barragem/Barramento/Dique,Não,0.0,0.0,0,0.0,0.0,0,0.0
370,Barnabé 1,VALE S.A.,33592510000154,MG,CONGONHAS,-20.43402777777778,-43.882333333333335,Sul do Equador,Baixa,Alta,Sim,Sim,Nível de Alerta,1º Campanha 2024 - Atestado,1º Campanha 2023 - Atestado,Barragem/Barramento/Dique,Não,0.0,0.0,0,0.0,0.0,0,0.0
371,BARRAGEM B4,CSN MINERACAO S.A.,08902291000115,MG,CONGONHAS,-20.485833333333336,-43.88583333333333,Sul do Equador,Baixa,Alta,Sim,Sim,Sem emergência,1º Campanha 2024 - Atestado,1º Campanha 2023 - Atestado,Barragem/Barramento/Dique,Não,0.0,0.0,0,0.0,0.0,0,42.0
372,BARRAGEM CASA DE PEDRA,CSN MINERACAO S.A.,08902291000115,MG,CONGONHAS,-20.50583333333333,-43.88333333333333,Sul do Equador,Baixa,Alta,Sim,Sim,Sem emergência,1º Campanha 2024 - Atestado,1º Campanha 2023 - Atestado,Barragem/Barramento/Dique,Sim,1.0,1.0,0,0.0,0.0,0,0.0
373,DIQUE DO BICHENTO IIIA,CSN MINERACAO S.A.,08902291000115,MG,CONGONHAS,-20.485,-43.93333333333333,Sul do Equador,Baixa,Média,Não,Sim,Sem emergência,1º Campanha 2024 - Atestado,1º Campanha 2023 - Atestado,Barragem/Barramento/Dique,Não,0.0,0.0,0,0.0,0.0,0,0.0
374,DIQUE DO ENGENHO,CSN MINERACAO S.A.,08902291000115,MG,CONGONHAS,-20.45647222222222,-43.89447222222222,Sul do Equador,Baixa,Média,Não,Sim,Sem emergência,1º Campanha 2024 - Atestado,1º Campanha 2023 - Atestado,Barragem/Barramento/Dique,Não,0.0,0.0,0,0.0,0.0,0,0.0
375,DIQUE DO ESMERIL IV,CSN MINERACAO S.A.,08902291000115,MG,CONGONHAS,-20.485277777777778,-43.955000000000005,Sul do Equador,Baixa,Alta,Sim,Sim,Sem emergência,1º Campanha 2024 - Atestado,1º Campanha 2023 - Atestado,Barragem/Barramento/Dique,Não,0.0,0.0,0,0.0,0.0,0,0.0
376,SANTA TERESA,Novelis do Brasil Ltda,60561800000103,MG,DESCOBERTO,-21.46719444444444,-42.88597222222222,Sul do Equador,Média,Baixa,Não,Não,Sem emergência,-,-,Barragem/Barramento/Dique,Não,0.0,0.0,3,0.0,0.0,0,42.0
377,SANGUINETE,Mineração Sanguinete Ltda,20762035000175,MG,DIAMANTINA,-18.009055555555555,-43.76891666666666,Sul do Equador,Média,Baixa,Não,Não,Sem emergência,-,-,Barragem/Barramento/Dique,Não,0.0,0.0,3,0.0,0.0,0,0.0
378,Barragem Bacia de Decantação 02,MINERACAO FL JOTAS LTDA,09145188000130,MG,ESMERALDAS,-19.74476527777778,-44.37487194444444,Sul do Equador,Média,Baixa,Não,Não,Sem emergência,-,-,Barragem/Barramento/Dique,Não,0.0,0.0,3,0.0,0.0,0,0.0
379,Barragem Bacia de Decantação 03,MINERACAO FL JOTAS LTDA,09145188000130,MG,ESMERALDAS,-19.74500388888889,-44.37478055555555,Sul do Equador,Alta,Baixa,Não,Sim,Emergência Nivel 1,1º Campanha 2024 - Não Enviado,1º Campanha 2023 - Indefinido,Barragem/Barramento/Dique,Não,0.0,0.0,0,0.0,0.0,0,0.0
380,BARRAGEM REJEITOS,Extrativa Metalurgia S A,03761820000194,MG,FORTALEZA DE MINAS,-20.89286111111111,-46.70527777777778,Sul do Equador,Alta,Alta,Sim,Sim,Emergência Nivel 1,1º Campanha 2024 - Atestado,1º Campanha 2023 - Atestado,Barragem/Barramento/Dique,Não,0.0,0.0,0,0.0,0.0,0,50.0
381,Barragem B2 - Mina Tico-Tico,MINERACAO MORRO DO IPE S.A.,22902554000117,MG,IGARAPÉ,-20.110430555555556,-44.28667222222222,Sul do Equador,Média,Alta,Sim,Sim,Sem emergência,1º Campanha 2024 - Atestado,1º Campanha 2023 - Atestado,Barragem/Barramento/Dique,Não,0.0,0.0,0,0.0,0.0,0,50.0
382,Barragem B1-Auxiliar - Mina Tico-Tico,MINERACAO MORRO DO IPE S.A.,22902554000117,MG,IGARAPÉ,-20.103527777777778,-44.28819444444444,Sul do Equador,Baixa,Alta,Sim,Sim,Sem emergência,1º Campanha 2024 - Atestado,1º Campanha 2023 - Atestado,Barragem/Barramento/Dique,Não,0.0,0.0,0,0.0,0.0,0,0.32
383,GERAIS,MINERACOES GERAIS LTDA,02196839000172,MG,INHAÚMA,-19.582444444444445,-44.41141666666667,Sul do Equador,Média,Baixa,Não,Não,Sem emergência,-,-,Cava com Barramento Construído,Não,0.0,0.0,1,0.0,0.0,0,45.0
384,Gerais II,MINERACOES GERAIS LTDA,02196839000172,MG,INHAÚMA,-19.582597222222223,-44.409930555555555,Sul do Equador,Baixa,Baixa,Não,Não,Sem emergência,-,-,Cava com Barramento Construído,Não,0.0,0.0,1,0.0,0.0,0,54.0
385,Piteiras,Piteiras Mineração Ltda.,03369498000152,MG,ITABIRA,-19.69236111111111,-43.112861111111116,Sul do Equador,Média,Baixa,Não,Não,Sem emergência,-,-,Barragem/Barramento/Dique,Não,0.0,0.0,3,0.0,0.0,0,35.0
386,Cambucal I,VALE S.A.,33592510000154,MG,ITABIRA,-19.640643333333333,-43.24147777777778,Sul do Equador,Baixa,Alta,Sim,Sim,Sem emergência,1º Campanha 2024 - Atestado,1º Campanha 2023 - Atestado,Barragem/Barramento/Dique,Não,0.0,0.0,0,0.0,0.0,0,35.0
387,Cambucal II,VALE S.A.,33592510000154,MG,ITABIRA,-19.645592222222223,-43.242225,Sul do Equador,Baixa,Alta,Sim,Sim,Sem emergência,1º Campanha 2024 - Atestado,1º Campanha 2023 - Atestado,Barragem/Barramento/Dique,Não,0.0,0.0,0,0.0,0.0,0,0.0
388,Jirau,VALE S.A.,33592510000154,MG,ITABIRA,-19.570480555555555,-43.23155666666667,Sul do Equador,Baixa,Baixa,Não,Sim,Sem emergência,1º Campanha 2024 - Atestado,1º Campanha 2023 - Indefinido,Barragem/Barramento/Dique,Não,0.0,0.0,3,0.0,0.0,0,0.0
389,Borrachudo,VALE S.A.,33592510000154,MG,ITABIRA,-19.60931,-43.2633825,Sul do Equador,Baixa,Alta,Sim,Sim,Sem emergência,1º Campanha 2024 - Atestado,1º Campanha 2023 - Atestado,Barragem/Barramento/Dique,Não,0.0,0.0,0,0.0,0.0,0,0.0
390,Borrachudo II,VALE S.A.,33592510000154,MG,ITABIRA,-19.612504722222223,-43.26678,Sul do Equador,Baixa,Alta,Sim,Sim,Sem emergência,1º Campanha 2024 - Atestado,1º Campanha 2023 - Atestado,Barragem/Barramento/Dique,Não,0.0,0.0,0,12.4,7.0,1,28.79
391,Cemig I,VALE S.A.,33592510000154,MG,ITABIRA,-19.575618055555555,-43.20475694444445,Sul do Equador,Baixa,Alta,Sim,Sim,Sem emergência,1º Campanha 2024 - Atestado,1º Campanha 2023 - Atestado,Barragem/Barramento/Dique,Não,0.0,0.0,0,0.0,0.0,0,0.0
392,Cemig II,VALE S.A.,33592510000154,MG,ITABIRA,-19.572700277777777,-43.197536388888885,Sul do Equador,Média,Alta,Sim,Sim,Sem emergência,1º Campanha 2024 - Atestado,1º Campanha 2023 - Atestado,Barragem/Barramento/Dique,Não,0.0,0.0,0,0.0,0.0,0,27.39
393,Santana,VALE S.A.,33592510000154,MG,ITABIRA,-19.555094166666667,-43.1608625,Sul do Equador,Baixa,Alta,Sim,Sim,Sem emergência,1º Campanha 2024 - Atestado,1º Campanha 2023 - Atestado,Barragem/Barramento/Dique,Não,0.0,0.0,0,0.0,0.0,0,22.7
